,alias,name,url,categories,latitude,longitude,address,zip_code,price,rating,review_count
0,le-sud-paris,Le Sud,https://www.yelp.com/biz/le-sud-paris,french,48.878948,2.284763,91 boulevard Gouvion Saint Cyr,75017,3,3.5,124.0
1,le-dome-paris-13,Le Dome,https://www.yelp.com/biz/le-dome-paris-13,"bars, cafes",48.88163,2.31576,4 avenue des Villiers,75017,4,3.0,64.0
2,la-romantica-clichy,La Romantica,https://www.yelp.com/biz/la-romantica-clichy,italian,48.901545669902,2.3048312204654,73 bd Jean Jaurès,92110,4,3.5,64.0
3,le-durand-dupont-neuilly-sur-seine,Le Durand Dupont,https://www.yelp.com/biz/le-durand-dupont-neuilly-sur-seine,"bars, french",48.88075,2.2755899,14 place du Marché,92200,3,3.0,61.0
4,schwartzs-deli-paris-5,Schwartz's Deli,https://www.yelp.com/biz/schwartzs-deli-paris-5,"tradamerican, burgers",48.8804503599318,2.29542561320034,22 avenue Niel,75017,2,4.0,52.0
5,le-petit-villiers-paris-2,Le Petit Villiers,https://www.yelp.com/biz/le-petit-villiers-paris-2,french,48.8838078,2.3047215,75 avenue de Villiers,75017,2,3.5,51.0
6,un-air-de-famille-paris-2,Un Air de famille,https://www.yelp.com/biz/un-air-de-famille-paris-2,french,48.88229,2.31587,118 rue des Dames,75017,2,3.5,50.0
7,oresto-paris-3,Oresto,https://www.yelp.com/biz/oresto-paris-3,"french, bars, modern_european",48.881586,2.286145,55 boulevard Gouvion Saint-Cyr,75017,2,3.5,50.0
8,le-ballon-des-ternes-paris-2,Le Ballon des Ternes,https://www.yelp.com/biz/le-ballon-des-ternes-paris-2,french,48.880597630898,2.2854221949609,103 avenue Ternes,75017,3,3.5,47.0
9,l-entredgeu-paris,L'Entredgeu,https://www.yelp.com/biz/l-entredgeu-paris,french,48.8848,2.29143,83 Rue Laugier,75017,3,3.5,47.0
10,la-casa-di-sergio-paris,La Casa di Sergio,https://www.yelp.com/biz/la-casa-di-sergio-paris,italian,48.879607702443,2.2893595989498,77 ave Ternes,75017,3,4.0,44.0
11,maison-rostang-paris,Maison Rostang,https://www.yelp.com/biz/maison-rostang-paris,french,48.8814136,2.2984913,20 rue Rennequin,75017,4,4.5,44.0
12,le-dada-paris,Le Dada,https://www.yelp.com/biz/le-dada-paris,"brasseries, french",48.878514295181,2.2955943023642,12 avenue des Ternes,75017,2,3.0,44.0
13,le-franc-tireur-paris-3,Le Franc Tireur,https://www.yelp.com/biz/le-franc-tireur-paris-3,brasseries,48.8790379940633,2.29108138528464,34 rue d'Armaillé,75017,2,4.0,42.0
14,chartier-laure-et-thomas-levallois-perret,Chartier Laure et Thomas,https://www.yelp.com/biz/chartier-laure-et-thomas-levallois-perret,"french, bistros, brasseries",48.899174,2.284298,146 Rue Prés Wilson,92300,3,4.0,41.0
15,trattoria-di-bellagio-paris-2,Trattoria di Bellagio,https://www.yelp.com/biz/trattoria-di-bellagio-paris-2,"italian, pizza",48.88046,2.28556,101 avenue des Ternes,75017,2,3.5,41.0
16,coretta-paris,Coretta,https://www.yelp.com/biz/coretta-paris,bistros,48.88966,2.31628,151bis rue Cardinet,75017,3,4.5,40.0
17,rimal-paris,Rimal,https://www.yelp.com/biz/rimal-paris,lebanese,48.8811,2.31253,94 bd Malesherbes,75017,2,4.0,39.0
18,la-gioconda-paris,La Gioconda,https://www.yelp.com/biz/la-gioconda-paris,italian,48.88797,2.3167,18 Place Charles Fillion,75017,2,3.5,38.0
19,kiranes-paris,Kirane's,https://www.yelp.com/biz/kiranes-paris,indpak,48.87979,2.2884699,85 ave Ternes,75017,3,3.5,38.0
20,dessirier-paris-2,Dessirier,https://www.yelp.com/biz/dessirier-paris-2,"seafood, brasseries",48.8849716,2.2966518,9 place du Maréchal Juin,75017,4,4.0,38.0
21,l-agapé-paris-6,L'Agapé,https://www.yelp.com/biz/l-agap%C3%A9-paris-6,french,48.884926264719,2.3069041519363,51 rue Jouffroy d'Abbans,75017,4,4.0,37.0
22,léon-de-bruxelles-paris-13,Léon de Bruxelles,https://www.yelp.com/biz/l%C3%A9on-de-bruxelles-paris-13,"seafood, belgian",48.8787382,2.2845456,95 boulevard Gouvion Saint Cyr,75017,2,4.0,37.0
23,la-maison-de-charly-paris-2,La Maison de Charly,https://www.yelp.com/biz/la-maison-de-charly-paris-2,moroccan,48.8785,2.2845399,97 bd Gouvion Saint Cyr,75017,4,3.5,37.0
24,mum-dim-sum-paris-5,Mum Dim Sum,https://www.yelp.com/biz/mum-dim-sum-paris-5,dimsum,48.881358,2.313558,14 boulevard de Courcelles,75017,2,2.5,36.0
25,l-atelier-du-marché-paris,L'Atelier du Marché,https://www.yelp.com/biz/l-atelier-du-march%C3%A9-paris,"french, breakfast_brunch",48.8792894,2.2967452,4 rue Saussier-Leroy,75017,3,4.0,36.0
26,sébillon-neuilly-sur-seine-2,Sébillon,https://www.yelp.com/biz/s%C3%A9billon-neuilly-sur-seine-2,"french, brasseries, seafood, hotdogs",48.87909,2.27937,20 avenue Charles de Gaulle,92200,4,4.0,35.0
27,il-etait-une-oie-dans-le-sud-ouest-paris-2,Il Etait une Oie dans le Sud Ouest,https://www.yelp.com/biz/il-etait-une-oie-dans-le-sud-ouest-paris-2,"french, sud_ouest",48.88145,2.2991,8 Rue Gustave Flaubert,75017,3,4.5,35.0
28,le-chalet-de-neuilly-neuilly-sur-seine,Le Chalet de Neuilly,https://www.yelp.com/biz/le-chalet-de-neuilly-neuilly-sur-seine,fondue,48.8812,2.2778299,14 Rue du Commandant Pilot,92200,3,4.0,34.0
29,le-p-tit-canon-paris,Le P'tit Canon,https://www.yelp.com/biz/le-p-tit-canon-paris,french,48.8843131,2.31478,36 rue Legendre,75017,3,4.5,34.0
30,bistrot-du-passage-paris,Bistrot du Passage,https://www.yelp.com/biz/bistrot-du-passage-paris,bistros,48.8824708722432,2.31720269545649,14 passage Geoffroy Didelot,75017,2,4.0,33.0
31,pétrus-paris-3,Pétrus,https://www.yelp.com/biz/p%C3%A9trus-paris-3,"seafood, bistros, brasseries",48.8851926595968,2.29648850793455,12 place du Maréchal Juin,75017,4,4.5,33.0
32,coffee-parisien-neuilly-sur-seine,Coffee Parisien,https://www.yelp.com/biz/coffee-parisien-neuilly-sur-seine,"tradamerican, breakfast_brunch, burgers",48.880458023116,2.2781186746879,46 rue de Sablonville,92200,3,3.5,32.0
33,angelina-paris-10,Angelina,https://www.yelp.com/biz/angelina-paris-10,"tea, breakfast_brunch, cakeshop",48.8793649136682,2.2829681238037,2 place de la Porte Maillot,75017,2,3.5,32.0
34,madame-tomate-levallois-perret,Madame Tomate,https://www.yelp.com/biz/madame-tomate-levallois-perret,restaurants,48.89125,2.28558,49 rue Aristide Briand,92300,3,3.5,32.0
35,gigi-levallois-perret,Gigi,https://www.yelp.com/biz/gigi-levallois-perret,"italian, pizza",48.8988,2.28225,12 place Georges Pompidou,92300,2,2.5,31.0
36,aux-couleurs-du-monde-paris,Aux Couleurs du Monde,https://www.yelp.com/biz/aux-couleurs-du-monde-paris,"thai, laotian, honduran",48.8889796,2.3164246,118 rue Truffaut,75017,2,3.5,31.0
37,le-village-café-paris-4,Le Village Café,https://www.yelp.com/biz/le-village-caf%C3%A9-paris-4,cafes,48.882572,2.314893,22 rue de la Terrasse,75017,2,3.0,30.0
38,môm-paris-2,Môm,https://www.yelp.com/biz/m%C3%B4m-paris-2,"french, breakfast_brunch, bars",48.8799103,2.2918749,4-6 rue Pierre Demours,75017,3,3.5,30.0
39,aux-saveurs-du-marché-paris,Aux Saveurs du Marché,https://www.yelp.com/biz/aux-saveurs-du-march%C3%A9-paris,french,48.88251,2.29618,73 avenue Niel,75017,3,4.0,30.0
40,epicure-108-paris,Epicure 108,https://www.yelp.com/biz/epicure-108-paris,french,48.88561,2.31172,108 rue Cardinet,75017,3,3.5,29.0
41,la-gazelle-paris-5,La Gazelle,https://www.yelp.com/biz/la-gazelle-paris-5,african,48.8824254,2.2970543,9 rue Rennequin,75017,3,3.5,29.0
42,la-braisière-jacques-faussat-paris,La Braisière - Jacques Faussat,https://www.yelp.com/biz/la-braisi%C3%A8re-jacques-faussat-paris,sud_ouest,48.883273,2.306439,54 rue Cardinet,75017,3,4.0,27.0
43,la-fourchette-du-printemps-paris,La Fourchette du Printemps,https://www.yelp.com/biz/la-fourchette-du-printemps-paris,bistros,48.8876801,2.3102601,30 rue du Printemps,75017,4,4.0,27.0
44,le-brasier-paris-7,Le Brasier,https://www.yelp.com/biz/le-brasier-paris-7,french,48.879346,2.291969,58 avenue des Ternes,75017,3,3.5,27.0
45,au-petit-chavignol-paris,Au Petit Chavignol,https://www.yelp.com/biz/au-petit-chavignol-paris,french,48.88544,2.31024,78 Rue Tocqueville,75017,2,3.5,26.0
46,le-p-tit-bougnat-paris,Le P'tit Bougnat,https://www.yelp.com/biz/le-p-tit-bougnat-paris,"french, steak, wine_bars",48.8786783632371,2.29996385767208,118 boulevard Courcelles,75017,2,3.5,26.0
47,fanfan-paris,Fanfan,https://www.yelp.com/biz/fanfan-paris,"french, asianfusion",48.8801154,2.2943694,18 rue Bayen,75017,3,4.0,25.0
48,zino-paris,Zino,https://www.yelp.com/biz/zino-paris,italian,48.8842865,2.3001673,97 avenue de Villiers,75017,3,4.0,25.0
49,delitaly-paris,Delitaly,https://www.yelp.com/biz/delitaly-paris,italian,48.87943,2.2976,23 rue Poncelet,75017,2,4.0,24.0
50,au-petit-marguery-paris-3,Au Petit Marguery,https://www.yelp.com/biz/au-petit-marguery-paris-3,french,48.879634,2.290895,64 avenue des Ternes,75017,3,3.5,24.0
51,le-bouchon-et-l-assiette-paris,Le Bouchon et l'Assiette,https://www.yelp.com/biz/le-bouchon-et-l-assiette-paris,french,48.88632,2.31264,127 Rue Cardinet,75017,3,4.5,24.0
52,villa-punjab-paris,Villa Punjab,https://www.yelp.com/biz/villa-punjab-paris,indpak,48.88087,2.30214,15 rue Léon Jost,75017,2,4.0,23.0
53,little-nonna-paris,Little Nonna,https://www.yelp.com/biz/little-nonna-paris,"pizza, gluten_free",48.87957,2.294911,12 avenue Niel,75017,0,4.5,23.0
54,le-monceau-paris-2,Le Monceau,https://www.yelp.com/biz/le-monceau-paris-2,"brasseries, cocktailbars, tapasmallplates",48.881646,2.315713,4 avenue de Villiers,75017,3,2.5,23.0
55,le-royal-pereire-paris,Le Royal Pereire,https://www.yelp.com/biz/le-royal-pereire-paris,"seafood, french",48.88469,2.29783,1 Place Mar Juin,75017,2,3.0,22.0
56,le-bistrot-d-à-côté-flaubert-paris-2,Le Bistrot d'à Côté Flaubert,https://www.yelp.com/biz/le-bistrot-d-%C3%A0-c%C3%B4t%C3%A9-flaubert-paris-2,french,48.88143,2.29867,10 rue Gustave Flaubert,75017,3,4.0,22.0
57,l-huîtrier-paris-2,L'Huîtrier,https://www.yelp.com/biz/l-hu%C3%AEtrier-paris-2,"french, seafood",48.879802,2.296048,16 rue Saussier Leroy,75017,3,4.0,22.0
58,i-love-bo-bun-paris-17,I love Bo-Bun,https://www.yelp.com/biz/i-love-bo-bun-paris-17,vietnamese,48.88255,2.31665,108 Rue Dames,75017,2,3.0,21.0
59,polpo-levallois-perret,Polpo,https://www.yelp.com/biz/polpo-levallois-perret,"seafood, brasseries",48.9000117,2.2809687,47 quai Charles Pasqua,92300,3,3.0,20.0
60,le-sabodet-levallois-perret,Le Sabodet,https://www.yelp.com/biz/le-sabodet-levallois-perret,"cafes, coffee",48.8937843,2.2910843,36 Rue Edouard Vaillant,92300,2,4.5,20.0
61,l-imprévu-paris-9,L'Imprévu,https://www.yelp.com/biz/l-impr%C3%A9vu-paris-9,french,48.88188,2.31481,2 rue Tocqueville,75017,2,4.0,20.0
62,da-ugo-paris,Da Ugo,https://www.yelp.com/biz/da-ugo-paris,italian,48.88499,2.29399,12 rue Héliopolis,75017,2,4.0,20.0
63,restaurant-anatole-levallois-perret,restaurant anatole,https://www.yelp.com/biz/restaurant-anatole-levallois-perret,"french, modern_european",48.8967,2.2908,50 rue Anatole France,92300,0,3.0,19.0
64,le-millésimes-paris-3,Le Millésimes,https://www.yelp.com/biz/le-mill%C3%A9simes-paris-3,"french, bars",48.88024,2.30221,110 rue de Courcelles,75017,2,3.5,19.0
65,harold-paris-2,Harold,https://www.yelp.com/biz/harold-paris-2,french,48.88197,2.30503,48 Rue Prony,75017,3,3.0,19.0
66,le-clou-de-fourchette-paris,Le Clou de Fourchette,https://www.yelp.com/biz/le-clou-de-fourchette-paris,french,48.8848399,2.31749,121 rue de Rome,75017,2,4.0,19.0
67,la-barrière-de-clichy-paris,La Barrière de Clichy,https://www.yelp.com/biz/la-barri%C3%A8re-de-clichy-paris,french,48.8964637,2.3085082,1 rue de Paris,92110,4,4.0,18.0
68,le-café-dumas-paris,Le Café Dumas,https://www.yelp.com/biz/le-caf%C3%A9-dumas-paris,"french, cafes",48.8823999,2.31214,34 avenue de Villiers,75017,0,3.5,18.0
69,les-fougères-paris-2,Les Fougères,https://www.yelp.com/biz/les-foug%C3%A8res-paris-2,restaurants,48.87976,2.29424,10 rue Villebois Mareuil,75017,3,4.0,17.0
70,l-orée-des-champs-paris-4,L'Orée des Champs,https://www.yelp.com/biz/l-or%C3%A9e-des-champs-paris-4,brasseries,48.878546843051,2.2941237697934,35 avenue des Ternes,75017,2,3.0,17.0
71,saidoune-paris,Saidoune,https://www.yelp.com/biz/saidoune-paris,lebanese,48.884825,2.315082,35 Rue Legendre,75017,3,4.0,17.0
72,le-palanquin-paris,Le Palanquin,https://www.yelp.com/biz/le-palanquin-paris,vietnamese,48.8791348,2.295724,4 place Boulnois,75017,3,4.0,17.0
73,la-rucola-paris,La Rucola,https://www.yelp.com/biz/la-rucola-paris,italian,48.8892,2.30416,198 boulevard Malesherbes,75017,3,4.0,17.0
74,la-truffe-noire-neuilly-sur-seine,La Truffe Noire,https://www.yelp.com/biz/la-truffe-noire-neuilly-sur-seine,restaurants,48.8805,2.27912,2 Place Parmentier,92200,0,3.5,17.0
75,absolu-café-levallois-perret,Absolu Café,https://www.yelp.com/biz/absolu-caf%C3%A9-levallois-perret,"brasseries, bars",48.89505,2.2878201,88 rue du Président Wilson,92300,2,4.0,16.0
76,modjo-asnières-sur-seine,Modjo,https://www.yelp.com/biz/modjo-asni%C3%A8res-sur-seine,french,48.9070015,2.28263,37 rue de la Marne,92600,2,3.5,16.0
77,da-franco-paris-2,Da Franco,https://www.yelp.com/biz/da-franco-paris-2,italian,48.8813315217263,2.28611002827643,21 rue Ruhmkorff,75017,3,4.0,16.0
78,planet-sushi-levallois-perret,Planet Sushi,https://www.yelp.com/biz/planet-sushi-levallois-perret,sushi,48.889426660186,2.2891786114986,49 rue Louise Michel,92300,2,3.0,16.0
79,bustronome-paris,Bustronome,https://www.yelp.com/biz/bustronome-paris,"french, foodtours",48.87276,2.294027,2 avenue Kléber,75116,4,4.5,16.0
80,hd-diner-levallois-perret,HD Diner,https://www.yelp.com/biz/hd-diner-levallois-perret,"burgers, tradamerican, hotdog",48.8919,2.296922,31 rue d'Alsace,92300,2,2.0,16.0
81,la-bonne-table-clichy,La Bonne Table,https://www.yelp.com/biz/la-bonne-table-clichy,french,48.9051254,2.3019795,119 bd Jean Jaurès,92110,3,4.5,16.0
82,la-phyliale-paris,La Phyliale,https://www.yelp.com/biz/la-phyliale-paris,"vietnamese, vegan, sandwiches",48.8794970070108,2.29519911110401,12 rue Bayen,75017,2,4.0,16.0
83,fujiyama-paris-5,Fujiyama,https://www.yelp.com/biz/fujiyama-paris-5,japanese,48.8811284,2.2857796,57 Boulevard Gouvion Saint Cyr,75017,1,4.0,16.0
84,playoff-paris-3,PlayOff,https://www.yelp.com/biz/playoff-paris-3,"diners, sportsbars, burgers",48.87923,2.29924,58 avenue de Wagram,75017,2,3.5,16.0
85,le-courcelles-paris-2,Le Courcelles,https://www.yelp.com/biz/le-courcelles-paris-2,brasseries,48.87933,2.30394,94 Boulevard Courcelles,75017,3,2.5,15.0
86,ama-dao-levallois-perret,Ama Dao,https://www.yelp.com/biz/ama-dao-levallois-perret,"vietnamese, french",48.8899994,2.29005,65 rue Louise Michel,92300,2,4.0,15.0
87,mandarin-saint-cyr-paris,Mandarin Saint-Cyr,https://www.yelp.com/biz/mandarin-saint-cyr-paris,chinese,48.88233,2.2863,47 Boulevard Gouvion Saint Cyr,75017,2,3.5,15.0
88,au-petit-sud-ouest-levallois-perret,Au Petit Sud-Ouest,https://www.yelp.com/biz/au-petit-sud-ouest-levallois-perret,french,48.895036,2.278391,4 Rue Baudin,92300,3,3.5,15.0
89,le-comptoir-d-alphonse-paris,Le Comptoir d'alphonse,https://www.yelp.com/biz/le-comptoir-d-alphonse-paris,french,48.8853,2.29696,10 place du Marechal Juin,75017,2,4.5,15.0
90,la-famiglia-di-rebellato-paris,La Famiglia di Rebellato,https://www.yelp.com/biz/la-famiglia-di-rebellato-paris,"italian, pizza",48.8824013081356,2.29636790615627,73 bis avenue Niel,75017,2,4.5,15.0
91,paris-xvii-paris,Paris XVII,https://www.yelp.com/biz/paris-xvii-paris,french,48.882268835579,2.2882651718518,41 rue Guersant,75017,3,4.5,15.0
92,chez-karl-et-erick-paris-2,Chez Karl et Erick,https://www.yelp.com/biz/chez-karl-et-erick-paris-2,french,48.88281,2.31352,20 rue de Tocqueville,75017,2,4.0,15.0
93,la-recoleta-paris-17,La Recoleta,https://www.yelp.com/biz/la-recoleta-paris-17,argentine,48.8851034,2.295054,119 ave de Villiers,75017,2,4.5,15.0
94,scoop-café-paris,Scoop Café,https://www.yelp.com/biz/scoop-caf%C3%A9-paris,"pubs, tradamerican, sportsbars",48.882688,2.3169815,117 rue des Dames,75017,2,4.5,15.0
95,restaurant-brigitte-paris,Restaurant Brigitte,https://www.yelp.com/biz/restaurant-brigitte-paris,french,48.882,2.31401,16 avenue de Villiers,75017,4,4.5,14.0
96,le-jardin-d-ampère-paris,Le Jardin d'Ampère,https://www.yelp.com/biz/le-jardin-d-amp%C3%A8re-paris,"french, bars",48.884626,2.299764,102 Avenue de Villiers,75017,4,4.0,14.0
97,epices-riz-neuilly-sur-seine,Epices Riz,https://www.yelp.com/biz/epices-riz-neuilly-sur-seine,italian,48.88037,2.27787,23 Rue Sablonville,92200,2,4.0,14.0
98,le-hameau-paris-3,Le Hameau,https://www.yelp.com/biz/le-hameau-paris-3,french,48.880267,2.288061,84 avenue des Ternes,75017,0,4.5,14.0
99,a-l-improviste-paris,A l'Improviste,https://www.yelp.com/biz/a-l-improviste-paris,french,48.88105,2.30404,21 rue Médéric,75017,0,4.0,14.0
100,les-messugues-no-title,Les Messugues,https://www.yelp.com/biz/les-messugues-no-title,french,48.880122248126,2.30326132650721,8 rue Léon Jost,75017,3,4.5,13.0
101,la-cerisaie-levallois-perret,La Cerisaie,https://www.yelp.com/biz/la-cerisaie-levallois-perret,restaurants,48.8906506,2.279247,56 rue de Villiers,92300,3,3.5,13.0
102,ricci-paris,Ricci,https://www.yelp.com/biz/ricci-paris,"pizza, italian",48.881691,2.29213,45 Rue Bayen,75017,2,3.5,13.0
103,le-petit-champerret-paris,Le Petit Champerret,https://www.yelp.com/biz/le-petit-champerret-paris,french,48.88456,2.29102,30 rue Vernier,75017,3,4.5,13.0
104,roco-paris-3,Roco,https://www.yelp.com/biz/roco-paris-3,pizza,48.8838099,2.29296,1 rue de Guillaume Tell,75017,3,3.5,13.0
105,frédéric-simonin-paris-2,Frédéric Simonin,https://www.yelp.com/biz/fr%C3%A9d%C3%A9ric-simonin-paris-2,french,48.879936,2.294189,25 rue Bayen,75017,3,4.0,13.0
106,bacino-paris-2,Bacino,https://www.yelp.com/biz/bacino-paris-2,french,48.8831859110489,2.29888104621887,121 Rue Courcelles,75017,2,4.0,13.0
107,caves-pétrissans-paris-6,Caves Pétrissans,https://www.yelp.com/biz/caves-p%C3%A9trissans-paris-6,restaurants,48.88156,2.29569,30 Bis Avenue Niel,75017,0,4.5,13.0
108,l-indien-dans-la-ville-levallois-perret,L'Indien dans la ville,https://www.yelp.com/biz/l-indien-dans-la-ville-levallois-perret,indpak,48.890565,2.286443,53 Rue Anatole France,92300,2,3.0,13.0
109,le-boléro-de-ravel-levallois-perret-2,Le Boléro de Ravel,https://www.yelp.com/biz/le-bol%C3%A9ro-de-ravel-levallois-perret-2,"bars, french",48.8912472,2.288453,37 rue Gabriel Péri,92300,2,3.0,13.0
110,chez-léon-paris-14,Chez Léon,https://www.yelp.com/biz/chez-l%C3%A9on-paris-14,"breakfast_brunch, french",48.88415,2.31437,32 Rue Legendre,75017,2,4.0,13.0
111,la-famiglia-paris-5,La Famiglia,https://www.yelp.com/biz/la-famiglia-paris-5,italian,48.87933,2.28644,2 Rue Waldeck Rousseau,75017,3,4.0,13.0
112,les-délices-du-kashmir-levallois-perret,Les Délices du Kashmir,https://www.yelp.com/biz/les-d%C3%A9lices-du-kashmir-levallois-perret,"catering, indpak",48.8956145,2.2817502,133 Avenue Anatole France,92300,2,4.5,12.0
113,le-sawadi-clichy,Le Sawadi,https://www.yelp.com/biz/le-sawadi-clichy,thai,48.90082508,2.30387002,83 rue de Paris,92110,2,3.5,12.0
114,le-réfectoire-foodtruck-paris-3,Le Réfectoire - Foodtruck,https://www.yelp.com/biz/le-r%C3%A9fectoire-foodtruck-paris-3,"foodtrucks, burgers",48.8569297790527,2.34120011329651,,75000,2,4.5,12.0
115,chez-ly-paris,Chez Ly,https://www.yelp.com/biz/chez-ly-paris,panasian,48.88156,2.29569,95 avenue Niel,75017,3,3.5,12.0
116,marcella-paris,Marcella,https://www.yelp.com/biz/marcella-paris,"bars, italian, breakfast_brunch",48.88103,2.31656,1 boulevard de Courcelles,75008,3,3.0,12.0
117,la-piazetta-levallois-perret,La Piazetta,https://www.yelp.com/biz/la-piazetta-levallois-perret,"italian, pizza",48.893217,2.287864,1 place Henri Barbusse,92300,2,4.0,12.0
118,tropical-café-neuilly-sur-seine-2,Tropical Café,https://www.yelp.com/biz/tropical-caf%C3%A9-neuilly-sur-seine-2,french,48.88033,2.27897,5 place Parmentier,92200,3,4.0,12.0
119,restaurant-aux-3-marches-paris-2,Restaurant aux 3 Marches,https://www.yelp.com/biz/restaurant-aux-3-marches-paris-2,moroccan,48.88668,2.31192,11 Rue Jouffroy D'abbans,75017,2,3.5,12.0
120,le-galichon-clichy,Le Galichon,https://www.yelp.com/biz/le-galichon-clichy,creperies,48.90067,2.30756,93 Rue Henri Barbusse,92110,1,3.5,12.0
121,harpers-paris-21,Harper's,https://www.yelp.com/biz/harpers-paris-21,tradamerican,48.88463,2.3149,31 rue Legendre,75017,2,4.5,12.0
122,soleil-levant-paris-2,Soleil Levant,https://www.yelp.com/biz/soleil-levant-paris-2,japanese,48.88552,2.31002,57 rue Tocqueville,75017,2,4.0,12.0
123,la-cocotte-et-la-marmite-clichy,La Cocotte et la Marmite,https://www.yelp.com/biz/la-cocotte-et-la-marmite-clichy,french,48.9008272,2.3039632,76 rue de Paris,92110,3,4.5,12.0
124,le-boeuf-maillot-paris,Le Boeuf Maillot,https://www.yelp.com/biz/le-boeuf-maillot-paris,bistros,48.8803580232901,2.28566989302635,99 avenue des Ternes,75017,3,4.5,12.0
125,garnett-paris,Garnett,https://www.yelp.com/biz/garnett-paris,"tradamerican, hotdogs, burgers",48.88455,2.30965,85 rue Cardinet,75017,2,4.5,12.0
126,jardin-du-kashmir-paris-2,Jardin du Kashmir,https://www.yelp.com/biz/jardin-du-kashmir-paris-2,"pakistani, indpak",48.8853205,2.316357,60 rue Legendre,75017,0,4.0,12.0
127,chez-chung-paris,Chez Chung,https://www.yelp.com/biz/chez-chung-paris,vietnamese,48.882005,2.286302,49 bd Gouvion Saint Cyr,75017,1,4.0,11.0
128,le-café-ponce-paris,Le Café Ponce,https://www.yelp.com/biz/le-caf%C3%A9-ponce-paris,"cafes, coffee",48.8791809,2.2969899,17 rue Poncelet,75017,2,4.5,11.0
129,san-rémo-paris,San Rémo,https://www.yelp.com/biz/san-r%C3%A9mo-paris,"italian, pizza",48.881286,2.295524,97 avenue Niel,75017,2,3.5,11.0
130,la-chope-champeret-paris,La Chope Champeret,https://www.yelp.com/biz/la-chope-champeret-paris,"brasseries, cafes",48.8854842,2.2923928,143 ave Villiers,75017,0,3.0,11.0
131,miam-miam-levallois-perret,Miam Miam,https://www.yelp.com/biz/miam-miam-levallois-perret,vietnamese,48.89555857,2.29561552,127 rue Aristide Briand,92300,2,4.5,11.0
132,my-pumpui-levallois-perret,My Pumpui,https://www.yelp.com/biz/my-pumpui-levallois-perret,thai,48.88873,2.28759,11 rue Louise Michel,92300,3,4.0,11.0
133,le-progrès-paris-6,Le Progrès,https://www.yelp.com/biz/le-progr%C3%A8s-paris-6,"bars, argentine",48.88549,2.31653,62 Rue Legendre,75017,2,4.0,11.0
134,au-clair-de-lune-paris,Au Clair de Lune,https://www.yelp.com/biz/au-clair-de-lune-paris,brasseries,48.88513,2.31087,98 Rue Lévis,75017,2,3.0,11.0
135,ma-chère-et-tendre-paris,Ma Chère et Tendre,https://www.yelp.com/biz/ma-ch%C3%A8re-et-tendre-paris,french,48.8795510276742,2.28485684841871,81 bd Gouvion Saint Cyr,75017,4,3.5,11.0
136,chez-fred-paris-5,Chez Fred,https://www.yelp.com/biz/chez-fred-paris-5,"french, bistros, brasseries",48.8813369,2.2898985,190 bis boulevard Pereire,75017,3,3.5,10.0
137,le-zinc-du-marché-levallois-perret-4,Le Zinc du Marché,https://www.yelp.com/biz/le-zinc-du-march%C3%A9-levallois-perret-4,"french, bars",48.89069,2.2883,4 bis place Henri Barbusse,92300,3,4.0,10.0
138,mandarin-courcelles-paris,Mandarin Courcelles,https://www.yelp.com/biz/mandarin-courcelles-paris,restaurants,48.88245,2.29979,111 Bis Rue Courcelles,75017,1,3.5,10.0
139,l-anjou-levallois-perret,L'Anjou,https://www.yelp.com/biz/l-anjou-levallois-perret,french,48.8908005,2.28896,26 rue Gabriel Péri,92300,2,4.0,10.0
140,kaffeehaus-paris-17,Kaffeehaus,https://www.yelp.com/biz/kaffeehaus-paris-17,"german, tea, bakeries",48.8789299,2.29646,11 rue Poncelet,75017,2,4.0,10.0
141,le-safran-clichy,Le Safran,https://www.yelp.com/biz/le-safran-clichy,french,48.900242128565,2.3064587801627,81 rue Henri Barbusse,92110,2,3.5,10.0
142,félixio-café-paris,Félixio Café,https://www.yelp.com/biz/f%C3%A9lixio-caf%C3%A9-paris,"cocktailbars, brasseries",48.8868034639398,2.3173384366746,75 place du Docteur Félix Lobligeois,75017,2,3.0,10.0
143,le-petit-paris-paris,Le Petit Paris,https://www.yelp.com/biz/le-petit-paris-paris,french,48.88203,2.2976899,32 rue Rennequin,75017,3,4.5,10.0
144,la-place-paris-3,La Place,https://www.yelp.com/biz/la-place-paris-3,"brasseries, cafes, coffee",48.8845797135777,2.29758455513947,169 rue de Courcelles,75017,3,4.0,10.0
145,amorino-paris-23,Amorino,https://www.yelp.com/biz/amorino-paris-23,"icecream, waffles",48.881584,2.316399,2 avenue de villiers,75017,3,4.5,10.0
146,shogun-sushi-levallois-perret,Shogun Sushi,https://www.yelp.com/biz/shogun-sushi-levallois-perret,sushi,48.89073,2.29165,26 rue du Président Wilson,92300,2,3.0,10.0
147,new-mathura-levallois-perret,New Mathura,https://www.yelp.com/biz/new-mathura-levallois-perret,"fooddeliveryservices, indpak",48.892711,2.291892,16 Rue Edouard Vaillant,92300,3,4.0,10.0
148,lotus-de-thaï-paris-2,Lotus De Thaï,https://www.yelp.com/biz/lotus-de-tha%C3%AF-paris-2,restaurants,48.88503,2.29538,115 avenue Villiers,75017,2,3.5,10.0
149,au-limousin-levallois-perret,Au Limousin,https://www.yelp.com/biz/au-limousin-levallois-perret,"hotels, french",48.894014,2.276627,6 rue Greffulhe,92300,3,4.0,10.0
150,auberg-in-clichy,Auberg'In,https://www.yelp.com/biz/auberg-in-clichy,italian,48.9004773,2.3042468,77 rue de Paris,92110,2,4.5,10.0
151,roca-paris-2,Roca,https://www.yelp.com/biz/roca-paris-2,french,48.8848837,2.2950957,31 rue Guillaume Tell,75017,4,5.0,9.0
152,big-fernand-levallois-perret,Big Fernand,https://www.yelp.com/biz/big-fernand-levallois-perret,burgers,48.89514,2.28157,22 bis rue Paul Vaillant Couturier,92300,2,4.5,9.0
153,rafael-paris-3,Rafael,https://www.yelp.com/biz/rafael-paris-3,"french, kosher, mediterranean",48.88477,2.29842,105 rue de Prony,75017,4,3.0,9.0
154,bistrot-d-yves-paris-2,Bistrot d'Yves,https://www.yelp.com/biz/bistrot-d-yves-paris-2,french,48.8822,2.30447,33 rue Cardinet,75017,3,4.5,9.0
155,why-not-paris-3,Why not,https://www.yelp.com/biz/why-not-paris-3,restaurants,48.8825476,2.3011838,123 avenue de Wagram,75017,0,3.0,9.0
156,chez-christophe-paris,Chez Christophe,https://www.yelp.com/biz/chez-christophe-paris,steak,48.88873,2.31576,148 Rue Cardinet,75017,2,3.0,9.0
157,le-coq-noir-clichy,Le Coq Noir,https://www.yelp.com/biz/le-coq-noir-clichy,"french, african",48.900474,2.315423,92 Boulevard Victor Hugo,92110,3,4.0,9.0
158,fujisan-neuilly-sur-seine,Fujisan,https://www.yelp.com/biz/fujisan-neuilly-sur-seine,japanese,48.88294,2.27741,31 rue Madeleine Michelis,92200,3,3.5,9.0
159,new-york-à-paris-paris-2,New York à Paris,https://www.yelp.com/biz/new-york-%C3%A0-paris-paris-2,"burgers, french",48.8816092,2.2887843,33 rue Guersant,75017,2,4.0,9.0
160,le-sauret-paris,Le Sauret,https://www.yelp.com/biz/le-sauret-paris,brasseries,48.88381,2.31364,54 rue Lévis,75017,2,3.5,9.0
161,seç-paris-3,SEÇ,https://www.yelp.com/biz/se%C3%A7-paris-3,turkish,48.88639882,2.31094837,18 rue Jouffroy d'Abbans,75017,2,4.0,9.0
162,teppanyaki-sushi-paris,Teppanyaki sushi,https://www.yelp.com/biz/teppanyaki-sushi-paris,japanese,48.88479,2.31155,88 Rue Lévis,75017,2,4.0,9.0
163,l-epicerie-russe-paris-2,L'Epicerie Russe,https://www.yelp.com/biz/l-epicerie-russe-paris-2,"russian, delicatessen",48.882208447168,2.3138205407065,13 rue de la Terrasse,75017,0,3.0,9.0
164,café-bâ-yen-paris,Café Bâ-Yen,https://www.yelp.com/biz/caf%C3%A9-b%C3%A2-yen-paris,"cafes, brasseries, french",48.8826,2.29114,46 Rue Bayen,75017,2,4.5,9.0
165,cornelius-levallois-perret-2,Cornelius,https://www.yelp.com/biz/cornelius-levallois-perret-2,french,48.889926,2.288505,9 Place Henri Barbusse,92300,0,4.0,9.0
166,matsuri-neuilly-sur-seine-2,Matsuri,https://www.yelp.com/biz/matsuri-neuilly-sur-seine-2,"japanese, sushi",48.8791212861713,2.2789241373539,18 avenue Charles de Gaulle,92200,3,3.5,9.0
167,l-escient-paris,L'Escient,https://www.yelp.com/biz/l-escient-paris,french,48.879577,2.298061,28 rue Poncelet,75017,3,4.5,9.0
168,l-elfe-assis-levallois-perret,L'Elfe Assis,https://www.yelp.com/biz/l-elfe-assis-levallois-perret,creperies,48.88954,2.28937,48 rue Louise Michel,92300,2,4.5,9.0
169,les-grandes-bouches-paris,Les Grandes Bouches,https://www.yelp.com/biz/les-grandes-bouches-paris,"french, wine_bars, bistros, brasseries",48.8844702,2.3123671,78 Rue de Lévis,75017,3,3.5,9.0
170,la-koutoubia-levallois-perret,La Koutoubia,https://www.yelp.com/biz/la-koutoubia-levallois-perret,moroccan,48.897221,2.290577,45 rue Marjolin,92300,2,4.5,9.0
171,romantica-neuilly-sur-seine,Romantica,https://www.yelp.com/biz/romantica-neuilly-sur-seine,italian,48.8844299,2.27806,34 rue Perronet,92200,3,3.5,9.0
172,l-aligot-paris,L'Aligot,https://www.yelp.com/biz/l-aligot-paris,auvergnat,48.8823099,2.29584,73 avenue Niel,75017,0,5.0,9.0
173,crêperie-armoric-saveurs-paris-2,Crêperie Armoric Saveurs,https://www.yelp.com/biz/cr%C3%AAperie-armoric-saveurs-paris-2,creperies,48.88718,2.31218,95 Rue Saussure,75017,0,4.0,9.0
174,la-compagnie-paris-4,La Compagnie,https://www.yelp.com/biz/la-compagnie-paris-4,french,48.88267,2.30126,123 avenue de Wagram,75017,2,3.5,8.0
175,le-p-tit-musset-paris-2,Le P'tit Musset,https://www.yelp.com/biz/le-p-tit-musset-paris-2,french,48.88664,2.31309,132 Rue Cardinet,75017,3,3.5,8.0
176,ds-café-niel-paris,DS Café Niel,https://www.yelp.com/biz/ds-caf%C3%A9-niel-paris,"french, salad, sandwiches",48.88107,2.29521,25 avenue Niel,75017,2,4.5,8.0
177,villa-des-ternes-paris,Villa des Ternes,https://www.yelp.com/biz/villa-des-ternes-paris,"italian, pizza",48.881749115774,2.2887920845396,35 Rue Guersant,75017,2,4.0,8.0
178,osaka-paris-9,Osaka,https://www.yelp.com/biz/osaka-paris-9,japanese,48.88443,2.30125,95 avenue de Villiers,75017,0,4.0,8.0
179,goupil-le-bistrot-paris,Goupil le Bistrot,https://www.yelp.com/biz/goupil-le-bistrot-paris,"bistros, brasseries",48.88467,2.28922,4 Rue Claude-Debussy,75017,3,3.5,8.0
180,eat-the-road-neuilly-sur-seine,Eat The Road,https://www.yelp.com/biz/eat-the-road-neuilly-sur-seine,"foodtrucks, tradamerican",48.8806149,2.2759028,Place du Marché,92200,2,4.0,8.0
181,l-hortensia-paris,L'Hortensia,https://www.yelp.com/biz/l-hortensia-paris,restaurants,48.88526022,2.29767144,4 place du Maréchal Juin,75017,3,3.5,8.0
182,yanagawa-levallois-perret,Yanagawa,https://www.yelp.com/biz/yanagawa-levallois-perret,"sushi, japanese",48.8896881,2.280301,46 rue de Villiers,92300,2,3.5,8.0
183,il-grano-paris,Il Grano,https://www.yelp.com/biz/il-grano-paris,"pizza, italian, gluten_free",48.8797432966636,2.28691712021828,212 boulevard Pêreire,75017,0,3.5,8.0
184,la-marina-neuilly-sur-seine,La Marina,https://www.yelp.com/biz/la-marina-neuilly-sur-seine,creperies,48.880435,2.279862,21 rue de Sablonville,92200,1,4.0,8.0
185,sapori-siciliani-levallois-perret,Sapori Siciliani,https://www.yelp.com/biz/sapori-siciliani-levallois-perret,italian,48.892843,2.291903,113 rue Louis Rouquier,92300,3,4.0,7.0
186,gustave-neuilly-sur-seine,Gustave,https://www.yelp.com/biz/gustave-neuilly-sur-seine,bistros,48.8804485195173,2.27952428750363,1B Place Parmentier,92200,0,4.0,7.0
187,l-annexe-paris-17,L'Annexe,https://www.yelp.com/biz/l-annexe-paris-17,bistros,48.8794,2.29662,6 Rue Saussier Leroy,75017,3,4.5,7.0
188,le-cercle-asnières-sur-seine-2,Le Cercle,https://www.yelp.com/biz/le-cercle-asni%C3%A8res-sur-seine-2,"french, bars",48.9061884252612,2.28412303304401,2 rue de la Station,92600,2,3.5,7.0
189,pitaya-levallois-perret,Pitaya,https://www.yelp.com/biz/pitaya-levallois-perret,thai,48.89091,2.28128,13 rue Voltaire,92300,2,3.0,7.0
190,puerta-del-sol-paris,Puerta del Sol,https://www.yelp.com/biz/puerta-del-sol-paris,peruvian,48.88676,2.30981,13 rue de la Félicite,75017,2,5.0,7.0
191,la-capricciosa-neuilly-sur-seine-2,La Capricciosa,https://www.yelp.com/biz/la-capricciosa-neuilly-sur-seine-2,restaurants,48.8824044,2.2768838,61 Avenue Roule,92200,2,3.5,7.0
192,pizza-nino-paris-17,Pizza Nino,https://www.yelp.com/biz/pizza-nino-paris-17,"hotdogs, italian",48.8820047,2.2861104,49 bd Gouvion Saint Cyr,75017,2,4.0,7.0
193,cinecitta-paris-5,Cinecitta,https://www.yelp.com/biz/cinecitta-paris-5,"italian, pizza",48.88867,2.3168,89 rue Truffaut,75017,2,4.5,7.0
194,the-grill-room-paris,The Grill Room,https://www.yelp.com/biz/the-grill-room-paris,bbq,48.879447,2.314231,103 boulevard Malesherbes,75008,0,4.5,7.0
195,cook-paris,Cook,https://www.yelp.com/biz/cook-paris,restaurants,48.88103,2.29542,27 Avenue Niel,75017,3,2.0,7.0
196,pizza-catania-levallois-perret,Pizza Catania,https://www.yelp.com/biz/pizza-catania-levallois-perret,restaurants,48.8951,2.29181,12 rue Pierre Brossolette,92300,0,4.0,7.0
197,new-soul-food-paris,New Soul Food,https://www.yelp.com/biz/new-soul-food-paris,"foodtrucks, african, caribbean",48.83012,2.36224,,75013,0,4.5,7.0
198,le-café-de-france-levallois-perret-4,Le Café de France,https://www.yelp.com/biz/le-caf%C3%A9-de-france-levallois-perret-4,"coffee, brasseries, bars",48.8918579,2.2855025,75 Rue Anatole France,92300,2,3.0,7.0
199,le-rouergue-paris,Le Rouergue,https://www.yelp.com/biz/le-rouergue-paris,brasseries,48.88597,2.30923,34 rue Jouffroy d'abbans,75017,2,4.0,7.0
200,le-potager-du-père-thierry-paris-2,Le Potager du Père Thierry,https://www.yelp.com/biz/le-potager-du-p%C3%A8re-thierry-paris-2,french,48.884476,2.341335,16 rue des Trois Frères,75018,2,4.5,427.0
201,la-cave-gourmande-paris-2,La Cave Gourmande,https://www.yelp.com/biz/la-cave-gourmande-paris-2,bistros,48.884499,2.339847,96 rue des Martyrs,75018,2,4.5,336.0
202,refuge-des-fondues-paris,Refuge des Fondues,https://www.yelp.com/biz/refuge-des-fondues-paris,fondue,48.88446,2.3411,17 rue des Trois Frères,75018,2,4.0,206.0
203,al-caratello-paris-2,Al Caratello,https://www.yelp.com/biz/al-caratello-paris-2,italian,48.885237,2.335898,5 rue Audran,75018,2,4.5,200.0
204,le-petit-canard-paris,Le Petit Canard,https://www.yelp.com/biz/le-petit-canard-paris,french,48.880166,2.337314,19 rue Henri Monnier,75009,2,4.5,192.0
205,the-hardware-société-paris-2,The Hardware Société,https://www.yelp.com/biz/the-hardware-soci%C3%A9t%C3%A9-paris-2,"coffee, breakfast_brunch, australian",48.88688,2.3445299,10 rue Lamarck,75018,2,4.5,182.0
206,café-des-deux-moulins-paris-18,Café des Deux Moulins,https://www.yelp.com/biz/caf%C3%A9-des-deux-moulins-paris-18,brasseries,48.8849297,2.333624,15 rue Lepic,75018,2,3.0,176.0
207,le-relais-gascon-paris-2,Le Relais Gascon,https://www.yelp.com/biz/le-relais-gascon-paris-2,sud_ouest,48.88403,2.3391,6 rue des Abesses,75018,2,4.0,171.0
208,pizzeria-babalou-paris,Pizzeria Babalou,https://www.yelp.com/biz/pizzeria-babalou-paris,"italian, pizza",48.886483,2.344328,4 rue Lamarck,75018,2,4.5,168.0
209,bistrot-des-dames-paris-2,Bistrot des Dames,https://www.yelp.com/biz/bistrot-des-dames-paris-2,french,48.8850414,2.324979,18 rue des Dames,75017,3,3.5,167.0
210,le-basilic-paris-3,Le Basilic,https://www.yelp.com/biz/le-basilic-paris-3,french,48.886,2.33428,33 rue Lepic,75018,2,4.0,162.0
211,au-pied-du-sacré-coeur-paris-2,Au Pied du Sacré Coeur,https://www.yelp.com/biz/au-pied-du-sacr%C3%A9-coeur-paris-2,french,48.890208,2.3356074,85 rue Lamarck,75018,2,4.5,162.0
212,pink-mamma-paris,Pink Mamma,https://www.yelp.com/biz/pink-mamma-paris,"steak, bbq, italian",48.88187,2.3346,20 bis rue de Douai,75009,2,4.5,160.0
213,le-club-des-5-paris-3,Le Club des 5,https://www.yelp.com/biz/le-club-des-5-paris-3,french,48.886,2.31904,57 rue des Batignolles,75017,3,4.0,159.0
214,coquelicot-paris,Coquelicot,https://www.yelp.com/biz/coquelicot-paris,"bakeries, breakfast_brunch",48.88476,2.33762,24 rue des Abbesses,75018,2,3.5,147.0
215,soul-kitchen-paris,Soul Kitchen,https://www.yelp.com/biz/soul-kitchen-paris,"coffee, desserts, breakfast_brunch",48.88916,2.342305,33 rue Lamarck,75018,2,4.5,129.0
216,la-fourmi-paris,La Fourmi,https://www.yelp.com/biz/la-fourmi-paris,cafes,48.8823,2.33965,74 rue des Martyrs,75018,1,3.5,126.0
217,buvette-gastrothèque-paris,Buvette Gastrothèque,https://www.yelp.com/biz/buvette-gastroth%C3%A8que-paris,"french, wine_bars",48.8804470273044,2.33758428078072,28 rue Henri Monnier,75009,2,4.0,125.0
218,un-zèbre-à-montmartre-paris-3,Un Zèbre à Montmartre,https://www.yelp.com/biz/un-z%C3%A8bre-%C3%A0-montmartre-paris-3,"bars, french",48.885960361888,2.3347165778725,38 rue Lepic,75018,2,3.5,123.0
219,crêperie-brocéliande-paris-2,Crêperie Brocéliande,https://www.yelp.com/biz/cr%C3%AAperie-broc%C3%A9liande-paris-2,"creperies, french, gluten_free",48.884346,2.341099,15 rue des Trois Frères,75018,2,4.5,116.0
220,terminus-nord-paris,Terminus Nord,https://www.yelp.com/biz/terminus-nord-paris,"french, brasseries",48.88083,2.35144,23 rue de Dunkerque,75010,3,3.5,112.0
221,gabriela-paris-2,Gabriela,https://www.yelp.com/biz/gabriela-paris-2,"brazilian, grocery",48.8769371,2.3405512,3 rue Milton,75009,3,4.0,106.0
222,le-coq-rico-paris,Le Coq Rico,https://www.yelp.com/biz/le-coq-rico-paris,"bistros, french",48.887261205041,2.3370014478986,98 Rue Lepic,75018,4,4.5,104.0
223,l-eté-en-pente-douce-paris-2,L'Eté en Pente Douce,https://www.yelp.com/biz/l-et%C3%A9-en-pente-douce-paris-2,french,48.886384087927,2.3452077833273,23 rue Muller,75018,2,3.5,104.0
224,wepler-paris-3,Wepler,https://www.yelp.com/biz/wepler-paris-3,brasseries,48.883989,2.328086,14 place de Clichy,75018,3,3.5,104.0
225,chez-casimir-paris-2,Chez Casimir,https://www.yelp.com/biz/chez-casimir-paris-2,"french, breakfast_brunch",48.879358800924,2.352425519246,6 rue De Belzunce,75010,3,4.0,97.0
226,le-sancerre-paris-6,Le Sancerre,https://www.yelp.com/biz/le-sancerre-paris-6,"brasseries, cafes",48.88503,2.33704,35 Rue Abbesses,75018,3,3.5,95.0
227,le-jardin-d-en-face-paris,Le Jardin d'en Face,https://www.yelp.com/biz/le-jardin-d-en-face-paris,french,48.88482,2.34078,29 rue des Trois Frères,75018,2,4.5,94.0
228,la-recyclerie-paris-2,La Recyclerie,https://www.yelp.com/biz/la-recyclerie-paris-2,"culturalcenter, cafes, breakfast_brunch",48.897623,2.344037,83 boulevard Ornano,75018,2,4.0,92.0
229,mi-ranchito-paisa-paris,Mi Ranchito Paisa,https://www.yelp.com/biz/mi-ranchito-paisa-paris,colombian,48.87651,2.34489,35 rue Montholon,75009,2,4.0,92.0
230,no-stress-café-paris-8,No Stress Café,https://www.yelp.com/biz/no-stress-caf%C3%A9-paris-8,"cafes, spanish, breakfast_brunch",48.879421,2.337552,2 Place Gustave Toudouze,75009,2,3.5,90.0
231,sacrée-fleur-paris-2,Sacrée Fleur,https://www.yelp.com/biz/sacr%C3%A9e-fleur-paris-2,french,48.88758,2.3479199,50 rue Clignancourt,75018,3,4.5,89.0
232,chez-michel-paris,Chez Michel,https://www.yelp.com/biz/chez-michel-paris,french,48.880233,2.352003,10 rue de Belzunce,75010,3,4.0,88.0
233,chez-plumeau-paris,Chez Plumeau,https://www.yelp.com/biz/chez-plumeau-paris,french,48.88632,2.3403,4 place du Calvaire,75018,3,4.0,86.0
234,3-pièces-cuisine-paris-2,3 Pièces Cuisine,https://www.yelp.com/biz/3-pi%C3%A8ces-cuisine-paris-2,"wine_bars, bistros",48.882945,2.31809,25 rue de Chéroy,75017,2,3.5,85.0
235,guilo-guilo-paris,Guilo Guilo,https://www.yelp.com/biz/guilo-guilo-paris,japanese,48.88599,2.33708,8 rue Garreau,75018,4,4.5,85.0
236,bouillon-pigalle-paris-2,Bouillon Pigalle,https://www.yelp.com/biz/bouillon-pigalle-paris-2,french,48.88258,2.33744,22 boulevard Clichy,75018,2,3.5,85.0
237,sans-gêne-paris,Sans Gêne,https://www.yelp.com/biz/sans-g%C3%AAne-paris,"bars, french",48.8882138,2.3211997,112 rue Legendre,75017,2,4.0,82.0
238,le-dépanneur-pigalle-paris-3,Le Dépanneur Pigalle,https://www.yelp.com/biz/le-d%C3%A9panneur-pigalle-paris-3,"tradamerican, cocktailbars",48.88243,2.333292,27 rue Pierre Fontaine,75009,3,3.0,78.0
239,le-vin-qui-danse-paris-2,Le Vin Qui Danse,https://www.yelp.com/biz/le-vin-qui-danse-paris-2,"french, tapas, wine_bars",48.88036,2.32554,9 Rue Moscou,75008,3,3.5,77.0
240,le-pantruche-paris,Le Pantruche,https://www.yelp.com/biz/le-pantruche-paris,french,48.88046,2.3402,3 rue Victor Massé,75009,3,4.5,76.0
241,les-puces-des-batignolles-paris,Les Puces des Batignolles,https://www.yelp.com/biz/les-puces-des-batignolles-paris,"french, breakfast_brunch",48.888036655272,2.3210579564075,110 rue Legendre,75017,2,4.0,76.0
242,wrap-n-roll-paris,Wrap N Roll,https://www.yelp.com/biz/wrap-n-roll-paris,japanese,48.87651,2.32749,10 Rue Budapest,75009,2,4.0,75.0
243,rouge-bis-paris,Rouge Bis,https://www.yelp.com/biz/rouge-bis-paris,brasseries,48.8837021,2.3319197,7 place Blanche,75009,2,4.5,75.0
244,la-pizzetta-paris,La Pizzetta,https://www.yelp.com/biz/la-pizzetta-paris,"italian, pizza",48.8811,2.34147,22 ave Trudaine,75009,2,3.5,74.0
245,le-sourire-de-saigon-paris-2,Le Sourire de Saigon,https://www.yelp.com/biz/le-sourire-de-saigon-paris-2,vietnamese,48.89059,2.34343,54 rue du Mont Cenis,75018,3,4.0,73.0
246,le-bistro-des-deux-théâtres-paris,Le Bistro des Deux Théâtres,https://www.yelp.com/biz/le-bistro-des-deux-th%C3%A9%C3%A2tres-paris,"bistros, french",48.87808,2.33191,18 rue Blanche,75009,3,4.0,73.0
247,la-famille-paris,La Famille,https://www.yelp.com/biz/la-famille-paris,modern_european,48.8850485,2.3395909,41 rue des Trois Frères,75018,2,3.5,73.0
248,ripaille-paris,Ripaille,https://www.yelp.com/biz/ripaille-paris,"french, modern_european",48.88361,2.32077,69 rue des Dames,75017,3,4.0,73.0
249,ménélik-paris-2,Ménélik,https://www.yelp.com/biz/m%C3%A9n%C3%A9lik-paris-2,"fooddeliveryservices, african",48.890681,2.320363,4 rue Sauffroy,75017,2,4.0,72.0
250,le-dan-bau-paris,Le Dan Bau,https://www.yelp.com/biz/le-dan-bau-paris,vietnamese,48.884614,2.341262,18 rue des Trois Frères,75018,2,4.0,71.0
251,le-café-qui-parle-paris-3,Le Café qui Parle,https://www.yelp.com/biz/le-caf%C3%A9-qui-parle-paris-3,cafes,48.8874799,2.33353,24 rue Caulaincourt,75018,2,3.5,70.0
252,au-rendez-vous-des-amis-paris-4,Au Rendez-Vous des Amis,https://www.yelp.com/biz/au-rendez-vous-des-amis-paris-4,french,48.88574,2.34051,23 rue Gabrielle,75018,1,4.0,69.0
253,la-vache-et-le-cuisinier-paris,La Vache et le Cuisinier,https://www.yelp.com/biz/la-vache-et-le-cuisinier-paris,french,48.8846092,2.3412001,18 rue des Trois Frères,75018,3,5.0,69.0
254,café-marlette-paris-2,Café Marlette,https://www.yelp.com/biz/caf%C3%A9-marlette-paris-2,"bakeries, breakfast_brunch",48.880275,2.339808,51 rue des Martyrs,75009,2,4.0,68.0
255,la-table-d-eugène-paris-5,La Table d'Eugène,https://www.yelp.com/biz/la-table-d-eug%C3%A8ne-paris-5,french,48.89111,2.34693,18 rue Eugène Sue,75018,4,4.5,68.0
256,miroir-paris,Miroir,https://www.yelp.com/biz/miroir-paris,french,48.88399,2.33982,94 rue des Martyrs,75018,3,4.0,68.0
257,au-bon-coin-paris-2,Au Bon Coin,https://www.yelp.com/biz/au-bon-coin-paris-2,"wine_bars, bistros",48.89302,2.33778,49 rue des Cloys,75018,2,4.5,66.0
258,chez-toinette-paris,Chez Toinette,https://www.yelp.com/biz/chez-toinette-paris,french,48.88401,2.33682,20 rue Germain Pilon,75018,3,4.5,65.0
260,flesh-paris,FLESH,https://www.yelp.com/biz/flesh-paris,bbq,48.8823099,2.33311,25 rue de Douai,75009,2,4.0,64.0
261,francis-labutte-paris,Francis Labutte,https://www.yelp.com/biz/francis-labutte-paris,"french, brasseries",48.88978,2.34294,122 Rue Caulaincourt,75018,2,3.5,64.0
262,lazare-paris,Lazare,https://www.yelp.com/biz/lazare-paris,"french, brasseries",48.876683,2.325271,Parvis de la Gare Saint-Lazare,75008,3,4.0,64.0
263,pizza-di-loretta-paris,Pizza Di Loretta,https://www.yelp.com/biz/pizza-di-loretta-paris,"italian, pizza",48.88067,2.344,62 rue Rodier,75009,2,4.5,63.0
264,le-petit-poucet-paris-7,Le Petit Poucet,https://www.yelp.com/biz/le-petit-poucet-paris-7,"bars, cafes",48.88345,2.3272,5 place de Clichy,75017,2,2.5,62.0
265,yoom-paris-5,Yoom,https://www.yelp.com/biz/yoom-paris-5,dimsum,48.8778,2.33953,20 Rue Martyrs,75009,3,3.5,62.0
266,fuxia-paris-3,Fuxia,https://www.yelp.com/biz/fuxia-paris-3,"italian, delicatessen",48.8864045,2.3178547,69 place du Docteur Félix Lobligeois,75017,2,3.5,62.0
267,le-relais-de-la-butte-paris,Le Relais de la Butte,https://www.yelp.com/biz/le-relais-de-la-butte-paris,french,48.885782,2.338096,12 rue Ravignan,75018,2,3.5,61.0
268,au-cadet-de-gascogne-paris,Au Cadet de Gascogne,https://www.yelp.com/biz/au-cadet-de-gascogne-paris,french,48.8861458,2.3406407,4 place du Tertre,75018,3,3.0,61.0
269,le-bistrot-des-vignes-paris-3,Le Bistrot des Vignes,https://www.yelp.com/biz/le-bistrot-des-vignes-paris-3,"french, breakfast_brunch",48.88299,2.31815,90 rue Dames,75017,2,4.0,61.0
270,chez-vous-paris-2,Chez Vous,https://www.yelp.com/biz/chez-vous-paris-2,"french, bars, breakfast_brunch",48.8778,2.33953,15 Rue Choron,75009,2,4.0,59.0
271,braisenville-paris-2,Braisenville,https://www.yelp.com/biz/braisenville-paris-2,"french, cocktailbars",48.87994,2.34508,36 rue Condorcet,75009,3,4.0,59.0
272,le-maharaja-paris,Le Maharaja,https://www.yelp.com/biz/le-maharaja-paris,"indpak, srilankan",48.886289,2.322087,48 rue la Condamine,75017,2,4.5,59.0
273,brasserie-barbès-paris,Brasserie Barbès,https://www.yelp.com/biz/brasserie-barb%C3%A8s-paris,"cocktailbars, french, cafes",48.8838824130061,2.35008113086224,2 bd Barbès,75018,3,3.0,58.0
274,la-mascotte-paris-3,La Mascotte,https://www.yelp.com/biz/la-mascotte-paris-3,"brasseries, bars",48.88561,2.3354092,52 rue des Abbesses,75018,3,4.0,57.0
275,chez-ginette-paris,Chez Ginette,https://www.yelp.com/biz/chez-ginette-paris,"bars, french",48.889723740067,2.3386966968475,101 rue Caulaincourt,75018,2,3.5,57.0
276,thaï-house-paris-2,Thaï House,https://www.yelp.com/biz/tha%C3%AF-house-paris-2,thai,48.87951,2.34336,42 rue Rodier,75009,2,4.0,57.0
277,le-petit-bleu-paris,Le Petit Bleu,https://www.yelp.com/biz/le-petit-bleu-paris,"mediterranean, bbq, oriental",48.88635,2.3452,23 rue Muller,75018,2,4.0,57.0
278,clichys-tavern-paris-3,Clichy's Tavern,https://www.yelp.com/biz/clichys-tavern-paris-3,"belgian, beerbar",48.8847,2.32922,128 bis bd Clichy,75018,2,4.0,57.0
279,le-progrès-paris-5,Le Progrès,https://www.yelp.com/biz/le-progr%C3%A8s-paris-5,"brasseries, french, bistros",48.88388,2.34142,7 rue des Trois Frères,75018,2,3.5,57.0
280,au-clairon-des-chasseurs-paris,Au Clairon des Chasseurs,https://www.yelp.com/biz/au-clairon-des-chasseurs-paris,french,48.88664,2.34103,3 place du Tertre,75018,2,2.0,57.0
281,chez-eugène-paris-2,Chez Eugène,https://www.yelp.com/biz/chez-eug%C3%A8ne-paris-2,cafes,48.88661,2.34061,17 place du Tertre,75018,2,3.0,57.0
282,le-vrai-paris-paris,Le Vrai Paris,https://www.yelp.com/biz/le-vrai-paris-paris,"brasseries, wine_bars",48.88497,2.3372,33 rue des Abbesses,75018,2,3.0,57.0
283,la-bohème-du-tertre-paris,La Bohème du Tertre,https://www.yelp.com/biz/la-boh%C3%A8me-du-tertre-paris,brasseries,48.886751,2.341107,2 place du Tertre,75018,1,2.5,56.0
284,le-paprika-paris,Le Paprika,https://www.yelp.com/biz/le-paprika-paris,"french, hungarian",48.8808905,2.340474,28 ave Trudaine,75009,2,3.5,56.0
285,le-bloc-paris-3,Le Bloc,https://www.yelp.com/biz/le-bloc-paris-3,"french, bars",48.88903,2.31815,21 rue Brochant,75017,2,3.5,55.0
286,bar-italia-brasserie-paris-3,Bar Italia Brasserie,https://www.yelp.com/biz/bar-italia-brasserie-paris-3,italian,48.879965,2.329399,22 rue Moncey,75009,3,5.0,54.0
287,l-anvers-du-decor-paris,L'Anvers du Decor,https://www.yelp.com/biz/l-anvers-du-decor-paris,french,48.88374,2.34316,32 bis rue Orsel,75018,3,4.0,54.0
288,la-pointe-du-grouin-paris-10,La Pointe du Grouin,https://www.yelp.com/biz/la-pointe-du-grouin-paris-10,"sandwiches, french, tapas",48.8793719,2.3525128,8 rue de Belzunce,75010,2,3.5,54.0
289,sur-la-route-de-plouescat-paris,Sur la Route de Plouescat,https://www.yelp.com/biz/sur-la-route-de-plouescat-paris,creperies,48.886529,2.344296,4 rue Lamarck,75018,2,4.5,53.0
290,café-francoeur-paris-2,Café Francoeur,https://www.yelp.com/biz/caf%C3%A9-francoeur-paris-2,french,48.889912282321,2.342532,129 rue Caulaincourt,75018,2,3.0,53.0
291,addis-abeba-paris-2,Addis Abeba,https://www.yelp.com/biz/addis-abeba-paris-2,ethiopian,48.8799,2.33571,56 rue Notre Dame de Lorette,75009,2,4.0,52.0
292,le-relais-gascon-paris,Le Relais Gascon,https://www.yelp.com/biz/le-relais-gascon-paris,french,48.88615,2.33381,13 Rue Joseph De Maistre,75018,2,3.5,51.0
293,le-wagon-bleu-paris,Le Wagon Bleu,https://www.yelp.com/biz/le-wagon-bleu-paris,"french, cocktailbars",48.882964065708,2.320628354651,7 Rue Boursault,75017,2,3.5,50.0
294,le-consulat-paris,Le Consulat,https://www.yelp.com/biz/le-consulat-paris,french,48.887,2.34005,18 rue Norvins,75018,2,4.0,50.0
296,proibido-paris-4,Proibido,https://www.yelp.com/biz/proibido-paris-4,"bars, tapas",48.88659,2.3357199,34 rue Durantin,75018,1,4.0,48.0
297,le-poulbot-paris,Le Poulbot,https://www.yelp.com/biz/le-poulbot-paris,french,48.887586,2.339819,3 rue Poulbot,75018,2,4.5,48.0
298,il-brigante-paris,Il Brigante,https://www.yelp.com/biz/il-brigante-paris,pizza,48.89197,2.33986,14 rue Ruisseau,75018,2,4.5,48.0
299,le-chat-noir-1881-paris,Le Chat Noir 1881,https://www.yelp.com/biz/le-chat-noir-1881-paris,"lounges, french, brasseries",48.8836260019127,2.33405392616987,68 boulevard de Clichy,75018,3,3.0,48.0
300,la-crémaillère-1900-paris-3,La Crémaillère 1900,https://www.yelp.com/biz/la-cr%C3%A9maill%C3%A8re-1900-paris-3,"french, cabaret",48.88653,2.34053,15 place du Tertre,75018,3,3.5,47.0
301,le-bon-georges-paris,Le Bon Georges,https://www.yelp.com/biz/le-bon-georges-paris,bistros,48.877657,2.337197,45 rue Saint-Georges,75009,3,4.5,47.0
302,corso-paris-7,Corso,https://www.yelp.com/biz/corso-paris-7,italian,48.881895175377,2.345263582166,10 ave Trudaine,75009,2,3.5,47.0
303,au-général-lafayette-paris-3,Au Général Lafayette,https://www.yelp.com/biz/au-g%C3%A9n%C3%A9ral-lafayette-paris-3,french,48.876916,2.341041,52 rue de la Fayette,75009,2,3.5,46.0
304,café-de-luna-paris-2,Café de Luna,https://www.yelp.com/biz/caf%C3%A9-de-luna-paris-2,"cafes, brasseries",48.88462,2.32962,122 bd de Clichy,75018,2,3.5,45.0
305,kiez-biergarten-paris-4,KIEZ Biergarten,https://www.yelp.com/biz/kiez-biergarten-paris-4,"german, beergardens",48.8936245075874,2.33333607112307,24 rue Vauvenargues,75018,2,4.0,45.0
306,afghani-paris-2,Afghani,https://www.yelp.com/biz/afghani-paris-2,afghani,48.8869825,2.3452314,16 rue Paul Albert,75018,2,4.0,45.0
307,le-ruisseau-paris-2,Le Ruisseau,https://www.yelp.com/biz/le-ruisseau-paris-2,"burgers, french",48.89449,2.34065,65 rue du Ruisseau,75018,2,4.5,44.0
308,a-la-cloche-d-or-paris,A la Cloche d'Or,https://www.yelp.com/biz/a-la-cloche-d-or-paris,french,48.88213224056,2.3331160279715,3 rue Mansart,75009,3,4.0,43.0
309,le-café-bruant-paris,Le Café Bruant,https://www.yelp.com/biz/le-caf%C3%A9-bruant-paris,french,48.88561,2.33541,59 rue des Abbesses,75018,2,4.0,43.0
310,irène-et-bernard-paris-4,Irène et Bernard,https://www.yelp.com/biz/ir%C3%A8ne-et-bernard-paris-4,bistros,48.8936081,2.32214,58 rue Gauthey,75017,2,4.0,42.0
311,le-safari-paris,Le Safari,https://www.yelp.com/biz/le-safari-paris,indpak,48.8933858929294,2.34039198607206,36 Rue Ruisseau,75018,2,4.0,42.0
312,le-super-coin-paris-2,Le Super Coin,https://www.yelp.com/biz/le-super-coin-paris-2,"bars, bistros",48.89212,2.347,3 rue Baudelique,75018,1,4.5,42.0
313,l-endroit-paris-3,L'Endroit,https://www.yelp.com/biz/l-endroit-paris-3,bistros,48.8863352740086,2.318149,67 place du Docteur Félix Lobligeois,75017,2,4.0,42.0
314,hippopotamus-paris-33,Hippopotamus,https://www.yelp.com/biz/hippopotamus-paris-33,"steak, rotisserie_chicken",48.883226,2.326699,5 bd des Batignolles,75008,2,2.5,42.0
315,la-taverne-de-montmartre-paris,La Taverne de Montmartre,https://www.yelp.com/biz/la-taverne-de-montmartre-paris,french,48.885775,2.340414,25 rue Gabrielle,75018,2,4.0,41.0
316,fréquence-café-paris,Fréquence Café,https://www.yelp.com/biz/fr%C3%A9quence-caf%C3%A9-paris,"karaoke, bars, restaurants",48.8798831,2.3358416,56 rue Notre Dame de Lorette,75009,2,3.5,41.0
317,au-soleil-de-la-butte-paris-2,Au Soleil de la Butte,https://www.yelp.com/biz/au-soleil-de-la-butte-paris-2,brasseries,48.886523112681,2.3453561000043,32 rue Muller,75018,3,2.5,40.0
318,crêperie-pen-ty-paris,Crêperie Pen Ty,https://www.yelp.com/biz/cr%C3%AAperie-pen-ty-paris,creperies,48.88366,2.329,65 rue de Douai,75009,2,4.0,40.0
319,au-relais-paris,Au Relais,https://www.yelp.com/biz/au-relais-paris,"french, bars, coffee, cafes",48.88927,2.34238,48 rue Lamarck,75018,2,3.5,40.0
320,alice-pizza-paris-3,Alice Pizza,https://www.yelp.com/biz/alice-pizza-paris-3,"pizza, italian",48.8838096567655,2.32168793678284,57 rue des Dames,75017,2,3.5,40.0
321,privé-de-dessert-paris,Privé de Dessert,https://www.yelp.com/biz/priv%C3%A9-de-dessert-paris,french,48.88129,2.34093,4 rue Lallier,75009,3,4.0,40.0
322,l-annexe-paris-5,L'Annexe,https://www.yelp.com/biz/l-annexe-paris-5,french,48.88419,2.34126,13 rue Trois Frères,75018,2,4.5,40.0
323,le-chinon-paris,Le Chinon,https://www.yelp.com/biz/le-chinon-paris,"bars, brasseries",48.88541,2.3361,49 Rue des abbesses,75018,2,3.0,40.0
324,shin-jung-paris-08,Shin Jung,https://www.yelp.com/biz/shin-jung-paris-08,korean,48.88136,2.3241299,7 rue Clapeyron,75008,2,4.0,40.0
325,abri-paris-10,Abri,https://www.yelp.com/biz/abri-paris-10,sandwiches,48.8778724559936,2.34927195700834,92 rue du Faubourg Poissonnière,75010,3,4.5,40.0
326,comme-chez-maman-paris,Comme chez Maman,https://www.yelp.com/biz/comme-chez-maman-paris,bistros,48.88761,2.3181,5 rue des Moines,75017,3,4.5,40.0
327,fuxia-paris-7,Fuxia,https://www.yelp.com/biz/fuxia-paris-7,italian,48.8784,2.33967,25 rue des Martyrs,75009,2,3.5,39.0
329,el-nopal-taqueria-paris,El Nopal Taqueria,https://www.yelp.com/biz/el-nopal-taqueria-paris,mexican,48.88202,2.33651,5 rue Duperré,75009,2,4.5,39.0
330,baton-rouge-pigalle-paris,Baton Rouge Pigalle,https://www.yelp.com/biz/baton-rouge-pigalle-paris,"cocktailbars, tapasmallplates",48.8802,2.33551,62 rue Notre Dame de Lorette,75009,2,4.5,39.0
331,le-restaurant-paris,Le Restaurant,https://www.yelp.com/biz/le-restaurant-paris,bistros,48.884964,2.335676,32 rue Véron,75018,2,3.5,39.0
332,la-preuve-par-neuf-paris-2,La Preuve par Neuf,https://www.yelp.com/biz/la-preuve-par-neuf-paris-2,french,48.886954,2.332519,5 rue Damrémont,75018,3,3.5,38.0
333,ma-cocotte-saint-ouen-2,Ma Cocotte,https://www.yelp.com/biz/ma-cocotte-saint-ouen-2,french,48.9035603760068,2.33982053170887,106 rue des Rosiers,93400,3,3.5,38.0
334,hugo-paris-4,Hugo,https://www.yelp.com/biz/hugo-paris-4,french,48.87626,2.34727,12 rue Papillon,75009,2,4.5,38.0
336,la-villa-des-abbesses-paris,La Villa des Abbesses,https://www.yelp.com/biz/la-villa-des-abbesses-paris,"french, breakfast_brunch",48.88561,2.33523,61 rue des Abbesses,75018,2,3.0,38.0
337,grenouilles-paris,Grenouilles,https://www.yelp.com/biz/grenouilles-paris,"sandwiches, delicatessen",48.8871061857917,2.34178242552619,55 rue du Chevalier de la Barre,75018,1,5.0,38.0
338,sushi-boubou-paris-09,Sushi Boubou,https://www.yelp.com/biz/sushi-boubou-paris-09,japanese,48.8785,2.34583,52 rue de Maubeuge,75009,2,4.0,37.0
339,la-maison-rose-paris,La Maison Rose,https://www.yelp.com/biz/la-maison-rose-paris,french,48.887969665002,2.33965104092,2 rue de l'Abreuvoir,75018,3,3.5,37.0
340,la-boîte-aux-lettres-paris-2,La Boîte aux Lettres,https://www.yelp.com/biz/la-bo%C3%AEte-aux-lettres-paris-2,french,48.8868300540186,2.3381794989109,108 rue Lepic,75018,3,5.0,37.0
341,pétrelle-paris-2,Pétrelle,https://www.yelp.com/biz/p%C3%A9trelle-paris-2,french,48.88091,2.34667,34 rue Pétrelle,75009,4,3.5,37.0
342,le-bon-bock-paris-2,Le Bon Bock,https://www.yelp.com/biz/le-bon-bock-paris-2,french,48.88255,2.3419,2 rue Dancourt,75018,3,3.5,37.0
344,la-pierrade-paris,La Pierrade,https://www.yelp.com/biz/la-pierrade-paris,"fondue, french",48.8843,2.33967,93 Rue des Martyrs,75018,2,3.5,36.0
345,nirvana-paris-2,Nirvana,https://www.yelp.com/biz/nirvana-paris-2,indpak,48.879885,2.326621,6 rue de Moscou,75008,2,4.0,36.0
346,le-très-particulier-paris-3,Le Très Particulier,https://www.yelp.com/biz/le-tr%C3%A8s-particulier-paris-3,"cocktailbars, tapas",48.887769,2.335212,23 avenue Junot - Pavillon D,75018,2,4.0,36.0
347,bourgogne-sud-paris,Bourgogne Sud,https://www.yelp.com/biz/bourgogne-sud-paris,french,48.87815,2.3301,14 Rue Clichy,75009,3,4.0,36.0
348,square-marcadet-paris,Square Marcadet,https://www.yelp.com/biz/square-marcadet-paris,"french, bistros, breakfast_brunch",48.892229,2.331327,227 bis rue Marcadet,75018,2,4.0,36.0
349,la-maison-bleue-paris-5,La Maison Bleue,https://www.yelp.com/biz/la-maison-bleue-paris-5,"bistros, french, breakfast_brunch",48.878343,2.351023,7 place Franz Liszt,75010,3,4.5,36.0
350,le-chant-des-oliviers-paris,Le Chant des Oliviers,https://www.yelp.com/biz/le-chant-des-oliviers-paris,french,48.89282,2.343,88 rue Ordener,75018,3,4.0,36.0
351,enishi-paris,Enishi,https://www.yelp.com/biz/enishi-paris,japanese,48.88876,2.34602,67 rue Labat,75018,2,4.5,35.0
352,chamarré-montmartre-paris-2,Chamarré Montmartre,https://www.yelp.com/biz/chamarr%C3%A9-montmartre-paris-2,french,48.88928,2.34181,52 Rue Lamarck,75018,4,3.5,35.0
353,kokoya-paris,Kokoya,https://www.yelp.com/biz/kokoya-paris,japanese,48.8833627397526,2.32335943976432,5 rue des Batignolles,75017,3,4.5,35.0
354,le-floors-paris,Le Floors,https://www.yelp.com/biz/le-floors-paris,"tradamerican, burgers",48.886444,2.347948,2 rue Poulet,75018,2,3.5,35.0
355,risi-e-bisi-paris,Risi E Bisi,https://www.yelp.com/biz/risi-e-bisi-paris,italian,48.88015,2.3175,81 rue du Rocher,75008,3,4.0,35.0
356,les-caves-populaires-paris,Les Caves Populaires,https://www.yelp.com/biz/les-caves-populaires-paris,"wine_bars, cocktailbars, french",48.88474,2.32459,22 rue des Dames,75017,1,4.0,35.0
357,buffalo-grill-paris-4,Buffalo Grill,https://www.yelp.com/biz/buffalo-grill-paris-4,"steak, bbq",48.883495,2.332536,3 place Blanche,75009,2,2.5,34.0
358,le-saint-jean-paris-2,Le Saint Jean,https://www.yelp.com/biz/le-saint-jean-paris-2,"seafood, burgers, cocktailbars",48.88465,2.33784,23 rue Abbesses,75018,2,3.0,34.0
359,l-etoile-de-montmartre-paris-2,L'Etoile de Montmartre,https://www.yelp.com/biz/l-etoile-de-montmartre-paris-2,brasseries,48.89101,2.33926,26 rue Duhesme,75018,2,3.0,34.0
360,caillebotte-paris-2,Caillebotte,https://www.yelp.com/biz/caillebotte-paris-2,bistros,48.8771047,2.3406102,8 rue Hippolyte-Lebas,75009,3,4.0,34.0
361,marcel-paris-2,Marcel,https://www.yelp.com/biz/marcel-paris-2,"tradamerican, british, breakfast_brunch",48.8884043330983,2.33539351551713,1 Villa Léandre,75018,3,3.5,34.0
362,la-mandigotte-paris-18,La Mandigotte,https://www.yelp.com/biz/la-mandigotte-paris-18,french,48.8872873,2.3341602,68 rue Lepic,75018,2,4.5,34.0
363,les-canailles-paris,Les Canailles,https://www.yelp.com/biz/les-canailles-paris,french,48.8792768,2.3345899,25 Rue La Bruyère,75009,3,4.5,34.0
365,mandoobar-paris-2,Mandoobar,https://www.yelp.com/biz/mandoobar-paris-2,korean,48.87947,2.32116,7 rue d'Edimbourg,75008,2,4.0,33.0
367,sale-e-pepe-paris,Sale e Pepe,https://www.yelp.com/biz/sale-e-pepe-paris,"italian, pizza",48.8890636,2.34643221,30 rue Ramey,75018,2,4.0,33.0
368,bululú-arepera-paris,Bululú Arepera,https://www.yelp.com/biz/bulul%C3%BA-arepera-paris,venezuelan,48.8909454704663,2.33958390532431,20 rue de la Fontaine du But,75018,2,4.5,33.0
369,naoko-biot-paris,Naoko Biot,https://www.yelp.com/biz/naoko-biot-paris,japanese,48.8843,2.32608,11 rue Biot,75017,2,3.5,33.0
370,gang-seng-paris,Gang Seng,https://www.yelp.com/biz/gang-seng-paris,himalayan,48.886067043025,2.3346027041239,40 rue Lepic,75018,2,4.0,33.0
371,sizin-paris-2,Sizin,https://www.yelp.com/biz/sizin-paris-2,turkish,48.87771,2.33739,47 rue Saint-Georges,75009,2,4.0,33.0
372,thu-thu-paris,Thu Thu,https://www.yelp.com/biz/thu-thu-paris,vietnamese,48.89466,2.34622,51 bis rue Hermel,75018,2,3.5,33.0
373,la-bonne-franquette-paris,La Bonne Franquette,https://www.yelp.com/biz/la-bonne-franquette-paris,french,48.887163,2.339806,18 rue Saint-Rustique,75018,2,4.0,32.0
374,le-moulin-de-la-galette-paris-4,Le Moulin de la Galette,https://www.yelp.com/biz/le-moulin-de-la-galette-paris-4,french,48.88734,2.33705,83 rue Lepic,75018,3,4.0,31.0
375,jeanne-b-paris-2,Jeanne B,https://www.yelp.com/biz/jeanne-b-paris-2,"french, rotisserie_chicken",48.88777,2.33451,61 rue Lepic,75018,3,4.0,31.0
376,kastoori-paris-3,Kastoori,https://www.yelp.com/biz/kastoori-paris-3,indpak,48.8793858786058,2.33719110488892,4 Place Gustave Toudouze,75009,2,3.5,31.0
377,le-bouclard-paris-2,Le Bouclard,https://www.yelp.com/biz/le-bouclard-paris-2,french,48.88583,2.32865,1 rue Cavallotti,75018,3,4.5,31.0
379,le-bistral-paris,Le Bistral,https://www.yelp.com/biz/le-bistral-paris,french,48.88846815,2.32043669,80 rue Lemercier,75017,3,3.5,31.0
380,svetlana-paris,Svetlana,https://www.yelp.com/biz/svetlana-paris,russian,48.88347,2.34123,52 rue d'Orsel,75018,3,3.5,31.0
382,les-tantes-jeanne-paris,Les Tantes Jeanne,https://www.yelp.com/biz/les-tantes-jeanne-paris,"french, steak",48.8853172,2.334844,42 rue Véron,75018,3,4.5,30.0
383,le-coin-du-rocher-paris-2,Le Coin du Rocher,https://www.yelp.com/biz/le-coin-du-rocher-paris-2,bistros,48.88051,2.31738,88 rue Rocher,75008,2,4.5,30.0
384,la-villa-andréa-paris-2,La Villa Andréa,https://www.yelp.com/biz/la-villa-andr%C3%A9a-paris-2,italian,48.87911,2.35327,109 boulevard Magenta,75010,2,4.0,30.0
385,strobi-paris-17,Strobi,https://www.yelp.com/biz/strobi-paris-17,bistros,48.8842814,2.3262705,12 rue Biot,75017,3,4.0,30.0
386,le-cépage-montmartrois-paris-4,Le Cépage Montmartrois,https://www.yelp.com/biz/le-c%C3%A9page-montmartrois-paris-4,brasseries,48.889605,2.335844,65 Rue Caulaincourt,75018,2,4.0,30.0
387,société-wassana-paris-4,Société Wassana,https://www.yelp.com/biz/soci%C3%A9t%C3%A9-wassana-paris-4,thai,48.88616,2.3269,10 Rue Ganneron,75018,2,3.0,30.0
388,terrass-restaurant-et-bar-rooftop-paris,"Terrass"" Restaurant & Bar - Rooftop",https://www.yelp.com/biz/terrass-restaurant-et-bar-rooftop-paris,"bars, french",48.88651,2.333017,12 Rue Joseph de Maistre,75018,0,4.0,29.0
389,piccola-toscana-paris,Piccola Toscana,https://www.yelp.com/biz/piccola-toscana-paris,italian,48.8772897,2.3461,10 rue Rochambeau,75009,2,4.5,29.0
391,long-island-paris,Long Island,https://www.yelp.com/biz/long-island-paris,"pubs, french, cocktailbars",48.88187,2.33405,24 rue Fontaine,75009,2,3.0,29.0
392,tagada-bar-paris,Tagada Bar,https://www.yelp.com/biz/tagada-bar-paris,"cocktailbars, wine_bars, tapasmallplates",48.8852517,2.33969,40 rue Trois Frères,75018,2,4.0,29.0
393,l-oriental-paris-4,L'Oriental,https://www.yelp.com/biz/l-oriental-paris-4,moroccan,48.880833163898,2.3413865892323,47 avenue Trudaine,75009,3,4.0,29.0
394,la-table-des-anges-paris,La Table des Anges,https://www.yelp.com/biz/la-table-des-anges-paris,"french, bistros, brasseries",48.88102,2.3401,66 rue des Martyrs,75009,3,4.0,29.0
395,le-sans-souci-paris-2,Le Sans Souci,https://www.yelp.com/biz/le-sans-souci-paris-2,"bars, bistros",48.8813,2.33619,65 rue Jean-Baptiste Pigalle,75009,2,3.5,29.0
396,augustin-paris,Augustin,https://www.yelp.com/biz/augustin-paris,french,48.8840897,2.3216812,15 place Richard Baret,75017,2,4.0,28.0
397,albion-paris-2,Albion,https://www.yelp.com/biz/albion-paris-2,"wine_bars, bistros",48.87665,2.34865,80 rue du faubourg Poissonnière,75010,3,4.5,28.0
398,chez-julien-paris-2,Chez Julien,https://www.yelp.com/biz/chez-julien-paris-2,bistros,48.8840714,2.3331101,2 rue Lepic,75018,2,4.0,28.0
399,mamma-primi-paris,Mamma Primi,https://www.yelp.com/biz/mamma-primi-paris,italian,48.8836330233648,2.32069513100517,71 rue des Dames,75017,3,4.5,28.0
400,big-fernand-paris-12,Big Fernand,https://www.yelp.com/biz/big-fernand-paris-12,burgers,48.87475,2.34794,55 rue du Faubourg Poissonnière,75009,2,4.0,242.0
401,el-nopal-paris-3,El Nopal,https://www.yelp.com/biz/el-nopal-paris-3,mexican,48.87791,2.36513,3 rue Eugène Varlin,75010,2,4.0,143.0
402,krishna-bhavan-paris,Krishna Bhavan,https://www.yelp.com/biz/krishna-bhavan-paris,"vegetarian, indpak",48.882901,2.359645,24 rue Cail,75010,2,4.0,134.0
403,les-enfants-perdus-paris-3,Les Enfants Perdus,https://www.yelp.com/biz/les-enfants-perdus-paris-3,"french, cocktailbars",48.87439,2.36201,9 rue des Recollets,75010,3,4.0,129.0
404,point-ephémère-paris-4,Point Ephémère,https://www.yelp.com/biz/point-eph%C3%A9m%C3%A8re-paris-4,"musicvenues, french",48.88194,2.36876,200 quai de Valmy,75010,2,4.0,120.0
405,paname-brewing-company-paris,Paname Brewing Company,https://www.yelp.com/biz/paname-brewing-company-paris,"breweries, beerbar, pizza",48.887828,2.378784,41 bis quai de la Loire,75019,2,4.0,116.0
406,rosa-bonheur-paris-2,Rosa Bonheur,https://www.yelp.com/biz/rosa-bonheur-paris-2,"bars, danceclubs, tapas",48.879938,2.386241,2 allée de la Cascade,75019,2,3.5,113.0
408,le-pavillon-des-canaux-paris,Le Pavillon des Canaux,https://www.yelp.com/biz/le-pavillon-des-canaux-paris,"bars, cafes, modern_european",48.8874,2.37871,39 quai de la Loire,75019,2,4.5,101.0
409,saravanaa-bhavan-paris-2,Saravanaa Bhavan,https://www.yelp.com/biz/saravanaa-bhavan-paris-2,"indpak, vegetarian",48.88195,2.357341,170 rue du faubourg Saint-Denis,75010,2,3.5,98.0
413,café-a-paris,Café A,https://www.yelp.com/biz/caf%C3%A9-a-paris,"cafes, bars, breakfast_brunch",48.87541,2.36001,148 rue du faubourg Saint-Martin,75010,2,3.0,79.0
414,john-viande-paris,John Viande,https://www.yelp.com/biz/john-viande-paris,"burgers, beerbar, cocktailbars",48.874333,2.354259,7bis rue de Paradis,75010,2,4.5,79.0
415,kheak-et-vero-paris,Kheak & Vero,https://www.yelp.com/biz/kheak-et-vero-paris,"thai, vietnamese",48.8793153207581,2.36641645431519,1 rue Alexandre Parodi,75010,2,4.5,77.0
416,nanashi-paris,Nanashi,https://www.yelp.com/biz/nanashi-paris,"modern_european, breakfast_brunch, japanese",48.87516,2.35141,31 rue de Paradis,75010,2,3.0,69.0
417,gumbo-yaya-paris,Gumbo Yaya,https://www.yelp.com/biz/gumbo-yaya-paris,"chickenshop, tradamerican",48.87721,2.37001,3 rue Charles Robin,75010,2,4.0,66.0
418,street-bangkok-local-food-paris,Street Bangkok Local Food,https://www.yelp.com/biz/street-bangkok-local-food-paris,thai,48.87783,2.3651399,3 rue Eugène Varlin,75010,2,4.0,60.0
419,l-escargot-paris,L'Escargot,https://www.yelp.com/biz/l-escargot-paris,"french, bars",48.877069968274,2.3879786075176,50 rue Villette,75019,2,4.0,59.0
420,le-bastringue-paris,Le Bastringue,https://www.yelp.com/biz/le-bastringue-paris,bistros,48.88792,2.3769,67 quai de la Seine,75019,2,4.0,59.0
422,le-cafe-bizz-art-paris,Le Cafe Bizz'art,https://www.yelp.com/biz/le-cafe-bizz-art-paris,"danceclubs, lounges, cafes",48.8791618347168,2.36664009094238,167 quai de Valmy,75010,0,3.5,57.0
423,dishny-paris,Dishny,https://www.yelp.com/biz/dishny-paris,indpak,48.88277,2.3593099,25 rue Cail,75010,2,3.5,56.0
424,le-valmy-paris-2,Le Valmy,https://www.yelp.com/biz/le-valmy-paris-2,"brasseries, french, cocktailbars",48.877615,2.365153,145 quai de Valmy,75010,2,4.0,55.0
426,le-jaurès-paris-2,Le Jaurès,https://www.yelp.com/biz/le-jaur%C3%A8s-paris-2,"cafes, brasseries",48.8831931922962,2.37105643504333,1 avenue Jean Jaurès,75019,2,3.0,52.0
427,la-rotonde-stalingrad-paris-5,La Rotonde Stalingrad,https://www.yelp.com/biz/la-rotonde-stalingrad-paris-5,"french, bars",48.88344,2.36956,6-8 place de la Bataille de Stalingrad,75019,2,3.0,51.0
428,les-petites-gouttes-paris,Les Petites Gouttes,https://www.yelp.com/biz/les-petites-gouttes-paris,french,48.888278,2.362694,12 esplanade Nathalie Sarraute,75018,2,3.0,48.0
429,tesoro-d-italia-paris,Tesoro d'Italia,https://www.yelp.com/biz/tesoro-d-italia-paris,italian,48.8754,2.35006,41 rue Paradis,75010,2,4.0,48.0
430,generator-paris-paris-2,Generator Paris,https://www.yelp.com/biz/generator-paris-paris-2,"hostels, french, venues",48.878242,2.369571,9-11 place du Colonel Fabien,75010,0,3.5,48.0
431,la-fidélité-paris-3,La Fidélité,https://www.yelp.com/biz/la-fid%C3%A9lit%C3%A9-paris-3,french,48.87465,2.35673,12 rue de la Fidélité,75010,3,3.0,47.0
432,le-petit-ness-montpellier,Le Petit Ness,https://www.yelp.com/biz/le-petit-ness-montpellier,brasseries,48.883672,2.370855,1 place Jean Jaurès,34000,2,3.0,47.0
433,l-atmosphère-paris-4,L'Atmosphère,https://www.yelp.com/biz/l-atmosph%C3%A8re-paris-4,"french, spanish, mediterranean",48.87435,2.3626,49 rue Lucien Sampaix,75010,2,3.5,46.0
434,la-peña-festayre-paris-2,La Peña Festayre,https://www.yelp.com/biz/la-pe%C3%B1a-festayre-paris-2,"spanish, basque, tapas",48.896975,2.386692,32 avenue Corentin Cariou,75019,2,3.5,45.0
435,le-faitout-paris,Le Faitout,https://www.yelp.com/biz/le-faitout-paris,"bars, french, vegan",48.874905940528,2.3825127586881,23 ave Simon Bolivar,75019,2,3.5,43.0
436,la-bulle-paris,La Bulle,https://www.yelp.com/biz/la-bulle-paris,french,48.882134,2.363611,48 rue Louis Blanc,75010,3,4.0,43.0
437,jaipur-café-paris-4,Jaipur Café,https://www.yelp.com/biz/jaipur-caf%C3%A9-paris-4,"indpak, pakistani",48.876272424646,2.3497400017371,15-17 rue Messageries,75010,2,3.5,43.0
438,l-atlantide-paris,L'Atlantide,https://www.yelp.com/biz/l-atlantide-paris,moroccan,48.882984,2.381117,7 ave Laumière,75019,2,4.0,42.0
439,le-fantôme-paris-2,Le Fantôme,https://www.yelp.com/biz/le-fant%C3%B4me-paris-2,"bars, pizza, danceclubs",48.875369,2.35102105254692,36 rue de Paradis,75010,2,3.0,41.0
440,restaurant-le-robinet-d-or-paris-2,Restaurant le Robinet d'Or,https://www.yelp.com/biz/restaurant-le-robinet-d-or-paris-2,"bistros, breakfast_brunch",48.8781474,2.3647457,7 rue Eugène Varlin,75010,2,4.0,40.0
441,bobs-bake-shop-paris,Bob's Bake Shop,https://www.yelp.com/biz/bobs-bake-shop-paris,"desserts, tradamerican, bagels",48.8887667370818,2.36293970301517,Halle Pajol,75018,2,4.5,40.0
443,le-tricycle-paris-2,Le Tricycle,https://www.yelp.com/biz/le-tricycle-paris-2,vegan,48.87557,2.34919,51 rue de Paradis,75010,2,4.5,38.0
444,muniyandi-vilas-paris,Muniyandi Vilas,https://www.yelp.com/biz/muniyandi-vilas-paris,"indpak, srilankan",48.8838873,2.35912310000006,207 rue du Faubourg St Denis,75010,1,4.0,37.0
446,au-rendez-vous-de-la-marine-paris-2,Au Rendez-Vous de la Marine,https://www.yelp.com/biz/au-rendez-vous-de-la-marine-paris-2,bistros,48.883489713146,2.3717264491305,14 quai Loire,75019,2,4.0,35.0
447,quedubon-paris,Quedubon,https://www.yelp.com/biz/quedubon-paris,"french, basque, bistros",48.87805,2.3842,22 rue Plateau,75019,4,3.5,35.0
449,nakagawa-paris,Nakagawa,https://www.yelp.com/biz/nakagawa-paris,"japanese, sushi",48.87554,2.38898,9 rue Lassus,75019,2,4.0,35.0
450,belushis-paris-2,Belushi's,https://www.yelp.com/biz/belushis-paris-2,"sportsbars, burgers, musicvenues",48.8884753,2.3791826,159 rue de Crimée,75019,2,3.0,35.0
451,au-roi-du-café-paris-7,Au Roi du Café,https://www.yelp.com/biz/au-roi-du-caf%C3%A9-paris-7,french,48.89024,2.360385,2 rue de la Chapelle,75018,2,4.0,35.0
452,café-du-nord-paris,Café du Nord,https://www.yelp.com/biz/caf%C3%A9-du-nord-paris,"brasseries, breakfast_brunch, tea",48.87963,2.35568,19 rue de Dunkerque,75010,2,3.5,34.0
453,bizz-art-paris,Bizz' Art,https://www.yelp.com/biz/bizz-art-paris,"danceclubs, jazzandblues, french",48.87907,2.36647,167 quai de Valmy,75010,2,3.5,34.0
454,café-de-l-est-paris-2,Café de l'Est,https://www.yelp.com/biz/caf%C3%A9-de-l-est-paris-2,brasseries,48.875953,2.358539,78 boulevard de Strasbourg,75010,3,3.0,31.0
455,le-dellys-paris,Le Dellys,https://www.yelp.com/biz/le-dellys-paris,"bars, brasseries, mediterranean",48.87834,2.3578,5 rue des Deux Gares,75010,2,4.5,31.0
456,kaskad-cafe-paris-19,Kaskad Cafe,https://www.yelp.com/biz/kaskad-cafe-paris-19,"bars, brasseries",48.88271,2.38281,2 Pce Armand Carrel,75019,2,3.5,30.0
458,chamroueun-crimée-paris-2,Chamroueun Crimée,https://www.yelp.com/biz/chamroueun-crim%C3%A9e-paris-2,vietnamese,48.8906,2.37627,4 rue Mathis,75019,2,4.0,30.0
459,le-laumière-paris-2,Le Laumière,https://www.yelp.com/biz/le-laumi%C3%A8re-paris-2,"seafood, french",48.88465,2.37942,4 Rue Petit,75019,3,3.5,30.0
460,belushis-paris-3,Belushi's,https://www.yelp.com/biz/belushis-paris-3,"burgers, sportsbars, musicvenues",48.8793272,2.3580703,5 rue de Dunkerque,75010,2,2.5,30.0
461,i-cugini-paris,I Cugini,https://www.yelp.com/biz/i-cugini-paris,italian,48.8752968,2.3509331,33 rue de Paradis,75010,2,3.5,30.0
462,les-routiers-paris,Les Routiers,https://www.yelp.com/biz/les-routiers-paris,"french, bistros",48.888886,2.360083,50 bis rue Marx Dormoy,75018,2,4.5,30.0
463,le-pavillon-du-lac-paris,Le Pavillon du Lac,https://www.yelp.com/biz/le-pavillon-du-lac-paris,"french, bars",48.8808427176867,2.38119916067236,Parc de Buttes Chamount,75019,3,3.0,30.0
464,massawa-paris,Massawa,https://www.yelp.com/biz/massawa-paris,"african, ethiopian, vegetarian",48.881435,2.36298,22 rue du Château Landon,75010,2,4.0,29.0
465,fleuve-rouge-paris,Fleuve Rouge,https://www.yelp.com/biz/fleuve-rouge-paris,thai,48.8747878,2.3810765,1 rue Pradier,75019,2,4.0,29.0
467,corso-paris-9,Corso,https://www.yelp.com/biz/corso-paris-9,italian,48.8851676,2.3715402,12 quai de la Seine,75019,3,3.0,28.0
468,ma-kitchen-paris,Ma Kitchen,https://www.yelp.com/biz/ma-kitchen-paris,korean,48.87712,2.35141,85 Rue d'Hauteville,75010,2,4.5,28.0
469,bang-paris,Bang,https://www.yelp.com/biz/bang-paris,"steak, french, wine_bars",48.8755327989483,2.36337769099739,112 quai de Jemmapes,75010,3,3.5,28.0
470,le-gange-paris,Le Gange,https://www.yelp.com/biz/le-gange-paris,"indpak, burgers",48.8818421,2.3810538,65 rue Manin,75019,3,3.5,26.0
471,la-chope-du-château-rouge-paris-2,La Chope du Château Rouge,https://www.yelp.com/biz/la-chope-du-ch%C3%A2teau-rouge-paris-2,brasseries,48.88694,2.34778,40 rue de Clignancourt,75018,1,4.0,26.0
472,le-bariolé-paris-5,Le Bariolé,https://www.yelp.com/biz/le-bariol%C3%A9-paris-5,"brasseries, bars, bistros",48.87442,2.38629,103 rue de Belleville,75019,2,3.0,25.0
473,zoe-bouillon-paris,Zoe Bouillon,https://www.yelp.com/biz/zoe-bouillon-paris,"soup, french",48.87467,2.3811,66 Rue Rébeval,75019,2,4.0,25.0
474,chettinadu-mess-paris,Chettinadu  Mess,https://www.yelp.com/biz/chettinadu-mess-paris,indpak,48.8826899,2.3603,15 rue Cail,75010,2,3.5,24.0
475,aux-arts-et-sciences-réunis-paris-2,Aux Arts et Sciences Réunis,https://www.yelp.com/biz/aux-arts-et-sciences-r%C3%A9unis-paris-2,french,48.887363406083,2.3867853048297,161 avenue Jean Jaurès,75019,2,4.0,24.0
476,hippopotamus-paris-34,Hippopotamus,https://www.yelp.com/biz/hippopotamus-paris-34,steak,48.88027,2.35337,27 rue de Dunkerque,75010,2,3.5,24.0
477,le-chaland-paris,Le Chaland,https://www.yelp.com/biz/le-chaland-paris,brasseries,48.87882,2.36626,163 quai de Valmy,75010,2,3.5,23.0
478,bharath-paris-3,Bharath,https://www.yelp.com/biz/bharath-paris-3,indpak,48.882975,2.361482,51 rue Louis Blanc,75010,2,4.0,23.0
479,franco-et-giacomo-paris-2,Franco et Giacomo,https://www.yelp.com/biz/franco-et-giacomo-paris-2,"pizza, italian",48.885851,2.380093,115 avenue Jean Jaurès,75019,2,4.0,23.0
480,valentin-paris-2,Valentin,https://www.yelp.com/biz/valentin-paris-2,argentine,48.87464,2.38088,64 rue Rébeval,75019,2,3.5,23.0
481,le-bistrot-lorrain-paris,Le Bistrot Lorrain,https://www.yelp.com/biz/le-bistrot-lorrain-paris,"french, italian, pizza",48.87643,2.35638,17 Rue 8 Mai 1945,75010,2,4.0,22.0
482,pedzouille-paris,Pedzouille,https://www.yelp.com/biz/pedzouille-paris,"bistros, steak",48.876133,2.348528,66 rue du Faubourg Poissonnière,75010,2,5.0,22.0
483,42-degrés-paris,42 Degrés,https://www.yelp.com/biz/42-degr%C3%A9s-paris,"vegan, raw_food",48.8775787,2.34903,109 rue du faubourg Poissonnière,75009,3,4.0,22.0
484,14-paradis-paris,14 Paradis,https://www.yelp.com/biz/14-paradis-paris,french,48.87473,2.35393,14 rue de Paradis,75010,3,4.0,22.0
485,tonton-jaurès-paris,Tonton Jaurès,https://www.yelp.com/biz/tonton-jaur%C3%A8s-paris,bistros,48.8876,2.38923,174 avenue Jean Jaurès,75019,2,3.0,21.0
486,bombay-palace-paris-2,Bombay Palace,https://www.yelp.com/biz/bombay-palace-paris-2,"indpak, pakistani",48.87835,2.35646,149-151 rue du Faubourg Saint-Denis,75010,1,4.0,21.0
487,hanouman-paris-2,Hanouman,https://www.yelp.com/biz/hanouman-paris-2,panasian,48.89139,2.362287,32 rue de Torcy,75018,2,3.5,21.0
488,p-tite-bougnate-paris,P'Tite Bougnate,https://www.yelp.com/biz/p-tite-bougnate-paris,french,48.87726,2.35523,85 Boulevard Magenta,75010,2,4.0,21.0
489,les-bancs-publics-paris,Les Bancs Publics,https://www.yelp.com/biz/les-bancs-publics-paris,"french, bars",48.8908797,2.38388,2 rue de Nantes,75019,2,4.5,21.0
490,madras-café-paris-4,Madras Café,https://www.yelp.com/biz/madras-caf%C3%A9-paris-4,indpak,48.88035,2.3576,180 Rue Fbg St Denis,75010,2,3.5,21.0
491,mensae-paris,Mensae,https://www.yelp.com/biz/mensae-paris,french,48.87574,2.38571,23 rue Mélingue,75020,3,4.5,20.0
492,la-maison-blanche-paris-3,La Maison Blanche,https://www.yelp.com/biz/la-maison-blanche-paris-3,french,48.8796315742254,2.35529413198979,21 rue Dunkerque,75010,4,3.0,20.0
493,en-vrac-paris,En Vrac,https://www.yelp.com/biz/en-vrac-paris,"french, wine_bars",48.8901533035745,2.36136333374601,2 rue de l'Olive,75018,2,4.0,19.0
494,kube-restaurant-paris,Kube Restaurant,https://www.yelp.com/biz/kube-restaurant-paris,international,48.886676,2.358972,1-5 Passage Ruelle,75018,0,3.5,19.0
495,chez-paï-paris-2,Chez Paï,https://www.yelp.com/biz/chez-pa%C3%AF-paris-2,thai,48.87629,2.34856,74 rue de Faubourg Poissionnière,75010,2,4.0,19.0
496,paul-paris-20,Paul,https://www.yelp.com/biz/paul-paris-20,"bakeries, coffee, breakfast_brunch",48.881419,2.357082,12 rue de Dunkerque,75010,1,3.5,18.0
497,le-bellerive-paris-2,Le Bellerive,https://www.yelp.com/biz/le-bellerive-paris-2,french,48.888187,2.37728945910931,71 quai de la Seine,75019,2,3.5,18.0
498,la-brick-paris-2,La Brick,https://www.yelp.com/biz/la-brick-paris-2,mideastern,48.87559,2.38188,13 Rue Pradier,75019,2,5.0,18.0
499,hitomi-paris,Hitomi,https://www.yelp.com/biz/hitomi-paris,japanese,48.8770739,2.3516223,57 rue chabrol,75010,2,3.0,18.0
500,abradavio-paris,Abradavio,https://www.yelp.com/biz/abradavio-paris,"pizza, italian, french",48.87955,2.34843,Eurl Abradavio 3 Rue De Maubeuge,75009,2,4.0,18.0
501,café-caché-paris,Café Caché,https://www.yelp.com/biz/caf%C3%A9-cach%C3%A9-paris,french,48.89024,2.36851,104 rue d'Aubervilliers,75019,2,3.0,18.0
502,hippopotamus-paris-21,Hippopotamus,https://www.yelp.com/biz/hippopotamus-paris-21,steak,48.8966962,2.38475359,28 avenue Corentin Cariou,75019,3,2.0,18.0
503,les-chics-types-paris,Les Chics Types,https://www.yelp.com/biz/les-chics-types-paris,"bistros, breakfast_brunch",48.88402,2.38037,20 ave de Laumière,75019,2,3.0,18.0
504,paris-nord-café-paris-4,Paris Nord Café,https://www.yelp.com/biz/paris-nord-caf%C3%A9-paris-4,cafes,48.88083,2.35144,17 rue de Dunkerque,75010,3,3.5,17.0
505,le-ptit-hugo-paris,Le Ptit Hugo,https://www.yelp.com/biz/le-ptit-hugo-paris,creperies,48.89589,2.38266,34 rue de Cambrai,75019,2,4.5,17.0
506,mon-oncle-le-vigneron-paris,Mon Oncle Le Vigneron,https://www.yelp.com/biz/mon-oncle-le-vigneron-paris,french,48.8746,2.38135,71 rue Rébeval,75019,2,4.0,17.0
507,le-chansonnier-paris,Le Chansonnier,https://www.yelp.com/biz/le-chansonnier-paris,french,48.87862,2.36419,14 Rue Eugene Varlin,75010,3,4.0,17.0
508,pavillon-puebla-paris-3,Pavillon Puebla,https://www.yelp.com/biz/pavillon-puebla-paris-3,"bars, italian, breakfast_brunch",48.877245,2.37929774346855,Avenue Darcel,75019,2,3.5,17.0
509,le-scherkhan-paris-2,Le Scherkhan,https://www.yelp.com/biz/le-scherkhan-paris-2,"french, bars, brasseries",48.87509,2.35094,66 rue d'Hauteville,75010,3,3.5,17.0
510,les-arlots-paris,Les Arlots,https://www.yelp.com/biz/les-arlots-paris,french,48.88067,2.34996,136 rue Faubourg Poissonnière,75010,3,4.5,16.0
511,maison-castro-paris-3,Maison Castro,https://www.yelp.com/biz/maison-castro-paris-3,"delicatessen, sandwiches",48.880059,2.364864,15 bis rue Alexandre Parodi,75010,2,4.5,16.0
512,tin-tin-18-paris-2,Tin Tin 18,https://www.yelp.com/biz/tin-tin-18-paris-2,chinese,48.8911419860332,2.36086731275609,56 rue de Torcy,75018,2,3.5,16.0
513,sangeetha-paris-2,Sangeetha,https://www.yelp.com/biz/sangeetha-paris-2,"indpak, vegetarian",48.88016,2.3575,178 rue du faubourg Saint-Denis,75010,2,3.5,16.0
514,la-criée-paris-9,La Criée,https://www.yelp.com/biz/la-cri%C3%A9e-paris-9,seafood,48.8881567956062,2.37858892965337,68 quai de Seine,75019,2,3.0,16.0
515,kashmir-house-paris,Kashmir House,https://www.yelp.com/biz/kashmir-house-paris,indpak,48.87698293,2.3522564,36 rue de Chabrol,75010,3,4.0,16.0
516,mme-shawn-paris-13,Mme Shawn,https://www.yelp.com/biz/mme-shawn-paris-13,thai,48.874216,2.3624117,3 rue des Récollets,75010,3,3.5,16.0
517,matsuba-paris-2,Matsuba,https://www.yelp.com/biz/matsuba-paris-2,"korean, japanese, bbq",48.897615,2.385119,37 avenue Corentin Cariou,75019,2,3.5,16.0
518,brasserie-napoléon-iii-paris-2,Brasserie Napoléon III,https://www.yelp.com/biz/brasserie-napol%C3%A9on-iii-paris-2,"bistros, brasseries",48.882236,2.3819342,1 place Armand Carrel,75019,2,4.0,16.0
519,au-baroudeur-patient-paris,Au Baroudeur Patient,https://www.yelp.com/biz/au-baroudeur-patient-paris,"brasseries, bars",48.87963,2.35568,19 rue de Dunkerque,75010,1,2.5,15.0
520,coté-canal-paris-2,Coté Canal,https://www.yelp.com/biz/cot%C3%A9-canal-paris-2,"bars, musicvenues, bistros",48.884703150968,2.3704394331048,5 quai de la Seine,75019,2,4.0,15.0
521,la-violette-paris-2,La Violette,https://www.yelp.com/biz/la-violette-paris-2,french,48.895549,2.382793,11 avenue Corentin Cariou,75019,3,2.5,15.0
522,buffalo-grill-paris-3,Buffalo Grill,https://www.yelp.com/biz/buffalo-grill-paris-3,"bbq, steak",48.8797085,2.354301,9 boulevard de Denain,75010,2,2.5,15.0
523,flesh-paris-5,FLESH,https://www.yelp.com/biz/flesh-paris-5,bbq,48.88009,2.36684,23 rue Louis Blanc,75010,3,4.5,15.0
524,la-villa-del-padre-paris,La Villa Del Padre,https://www.yelp.com/biz/la-villa-del-padre-paris,"pizza, italian",48.88094,2.3511,27 rue Rocroy,75010,2,4.0,15.0
525,yummy-asian-food-paris-2,Yummy Asian Food,https://www.yelp.com/biz/yummy-asian-food-paris-2,"buffets, bubbletea, panasian",48.87637,2.35713,8 rue du 8 Mai 1945,75010,2,3.5,15.0
526,au-fond-du-bar-paris,Au Fond du Bar,https://www.yelp.com/biz/au-fond-du-bar-paris,french,48.8904,2.34843,15 Rue Simart,75018,2,4.0,15.0
527,restaurant-obu-paris,Restaurant OBU,https://www.yelp.com/biz/restaurant-obu-paris,"burgers, beerbar",48.8793099,2.3632,200 rue du Faubourg Saint Martin,75010,2,3.0,15.0
528,freegan-pony-paris-2,Freegan Pony,https://www.yelp.com/biz/freegan-pony-paris-2,vegetarian,48.900102,2.38723,Place Auguste Baron,75019,1,4.0,14.0
529,fujinomiya-paris,Fujinomiya,https://www.yelp.com/biz/fujinomiya-paris,japanese,48.88056,2.36448,213 rue Faubourg St Martin,75010,2,3.0,14.0
530,latinogourmand-paris-3,Latinogourmand,https://www.yelp.com/biz/latinogourmand-paris-3,"latin, peruvian",48.88218,2.36755,233 rue la Fayette,75010,2,4.5,14.0
531,my-free-kitchen-paris-2,My Free Kitchen,https://www.yelp.com/biz/my-free-kitchen-paris-2,"french, delicatessen, gluten_free",48.875757,2.347714,1 bis rue Bleue,75009,2,3.0,14.0
532,kaffee-bar-19-paris,Kaffee Bar 19,https://www.yelp.com/biz/kaffee-bar-19-paris,cafes,48.8906403445757,2.38230418413877,26B rue de l'Ourcq,75019,2,4.5,14.0
533,l-estampe-paris,L'Estampe,https://www.yelp.com/biz/l-estampe-paris,"french, lounges",48.879468945949,2.3883894473329,74 rue Botzaris,75019,3,2.5,14.0
534,aux-bons-amis-paris,Aux Bons Amis,https://www.yelp.com/biz/aux-bons-amis-paris,"moroccan, cafes",48.874272,2.375493,1 rue de l'Atlas,75019,2,4.0,14.0
535,la-marmite-paris-3,La Marmite,https://www.yelp.com/biz/la-marmite-paris-3,"brasseries, french",48.87581,2.34821,68 Rue Du Faubourg Poissonnière,75010,3,4.0,14.0
536,la-fontaine-de-belleville-paris,La Fontaine de Belleville,https://www.yelp.com/biz/la-fontaine-de-belleville-paris,"cafes, bars, sandwiches",48.87577,2.36856,31 - 33 rue Juliette Dodu,75010,2,4.0,14.0
537,la-chaufferie-paris,La Chaufferie,https://www.yelp.com/biz/la-chaufferie-paris,"bars, french",48.8788718,2.3541699,2 boulevard Denain,75010,2,4.0,13.0
538,la-piccola-sicilia-paris,La Piccola Sicilia,https://www.yelp.com/biz/la-piccola-sicilia-paris,"italian, pizza",48.8849652940453,2.37818299592604,79 avenue Jean Jaurès,75019,2,3.5,13.0
539,a-la-bière-comme-à-la-bière-paris,A la Bière Comme à la Bière,https://www.yelp.com/biz/a-la-bi%C3%A8re-comme-%C3%A0-la-bi%C3%A8re-paris,"beer_and_wine, tapasmallplates, beerbar",48.8886583449445,2.34764940244668,20 rue Custine,75018,1,4.0,13.0
540,le-petit-carillon-paris,Le Petit Carillon,https://www.yelp.com/biz/le-petit-carillon-paris,french,48.8792347,2.3666177,167 quai de Valmy,75010,2,3.0,13.0
541,new-thai-san-paris,New Thai San,https://www.yelp.com/biz/new-thai-san-paris,"thai, chinese",48.89136,2.3614,44 rue Torcy,75018,2,4.0,13.0
542,le-zinc-du-nord-paris,Le Zinc du Nord,https://www.yelp.com/biz/le-zinc-du-nord-paris,brasseries,48.8799286,2.3540399,25 rue de Dunkerque,75010,2,4.0,13.0
543,maison-becquey-paris,Maison Becquey,https://www.yelp.com/biz/maison-becquey-paris,bistros,48.89035,2.38421,34 quai de la Marne,75019,3,3.0,13.0
544,mussubï-paris,Mussubï,https://www.yelp.com/biz/mussub%C3%AF-paris,japanese,48.8773983,2.3514625,89 rue d'hauteville,75010,2,3.5,13.0
545,gardenia-paris,Gardenia,https://www.yelp.com/biz/gardenia-paris,"italian, pizza",48.87552,2.34947,49 rue de Paradis,75010,2,4.5,13.0
546,wako-paris,Wako,https://www.yelp.com/biz/wako-paris,japanese,48.88163,2.36626,208 bis rue la Fayette,75010,2,4.0,13.0
547,le-cadran-du-nord-paris,Le Cadran du Nord,https://www.yelp.com/biz/le-cadran-du-nord-paris,"french, breakfast_brunch",48.87954,2.35648,13 rue de Dunkerque,75010,2,3.5,13.0
548,o-béret-basque-paris-2,O Béret Basque,https://www.yelp.com/biz/o-b%C3%A9ret-basque-paris-2,basque,48.879,2.35448,4 boulevard Denain,75010,2,3.0,12.0
549,le-perchoir-de-l-est-paris,Le Perchoir de l'Est,https://www.yelp.com/biz/le-perchoir-de-l-est-paris,"kebab, cocktailbars, lounges",48.87647,2.359344,10 place du 11 Novembre 1918,75010,2,3.5,12.0
551,mcdonalds-paris-22,McDonald's,https://www.yelp.com/biz/mcdonalds-paris-22,"hotdogs, burgers",48.88083,2.35144,25 rue de Dunkerque,75010,1,3.5,12.0
552,thalassa-paris,Thalassa,https://www.yelp.com/biz/thalassa-paris,greek,48.87652,2.37851,50 ave Simon Bolivar,75019,2,4.0,12.0
553,yamada-paris,Yamada,https://www.yelp.com/biz/yamada-paris,"sushi, japanese",48.87842,2.36193,188 Rue Fbg St Martin,75010,2,4.0,12.0
554,le-sari-paris,le sari,https://www.yelp.com/biz/le-sari-paris,"indpak, fooddeliveryservices",48.8837,2.37368,42 avenue jean jaurès,75019,2,3.0,12.0
555,les-marmites-volantes-paris,Les Marmites Volantes,https://www.yelp.com/biz/les-marmites-volantes-paris,modern_european,48.88282,2.37321,69 rue Armand Carrel,75019,2,4.5,12.0
556,o-divin-paris,O Divin,https://www.yelp.com/biz/o-divin-paris,"wine_bars, french",48.87888197,2.38977844,35 rue des Annelets,75019,4,4.5,12.0
557,porte-12-paris,Porte 12,https://www.yelp.com/biz/porte-12-paris,french,48.87638,2.34977,12 rue des Messageries,75010,4,4.0,12.0
558,la-pièce-de-boeuf-paris-4,La Pièce de Boeuf,https://www.yelp.com/biz/la-pi%C3%A8ce-de-boeuf-paris-4,steak,48.8951342,2.3827053,7 Avenue Corentin Cariou,75019,3,3.5,12.0
559,l-oriental-paris-6,L'Oriental,https://www.yelp.com/biz/l-oriental-paris-6,lebanese,48.8922615,2.37938,58 rue de l'Ourcq,75019,1,3.5,11.0
560,restaurant-jardin-notre-dame-paris,Restaurant Jardin Notre-Dame,https://www.yelp.com/biz/restaurant-jardin-notre-dame-paris,french,48.884339180208,2.3794373027414,2 rue Petit Pont,75005,2,3.0,11.0
561,la-vigne-saint-laurent-paris,La Vigne Saint Laurent,https://www.yelp.com/biz/la-vigne-saint-laurent-paris,restaurants,48.8755016,2.3589085,2 Rue St Laurent,75010,3,3.5,11.0
562,restaurant-nioumre-franco-africain-paris,Restaurant Nioumre Franco Africain,https://www.yelp.com/biz/restaurant-nioumre-franco-africain-paris,african,48.886144928301,2.3502005855817,7 rue Poissonniers,75018,1,3.5,11.0
563,pomm-paris,Pomm,https://www.yelp.com/biz/pomm-paris,pizza,48.87788,2.36545,151 quai de Valmy,75010,1,3.5,11.0
564,camarade-boris-paris-19,Camarade Boris,https://www.yelp.com/biz/camarade-boris-paris-19,french,48.88739,2.37906,90 quai de Loire,75019,3,4.0,11.0
565,boua-thai-paris,Boua Thai,https://www.yelp.com/biz/boua-thai-paris,thai,48.8807,2.35239,15 rue Saint-Vincent de Paul,75010,2,4.0,11.0
566,woodies-paris,Woodies,https://www.yelp.com/biz/woodies-paris,"cafes, breakfast_brunch",48.8754708441019,2.34917144444404,51 rue de Paradis,75010,2,4.5,11.0
567,aux-cèdres-du-nord-paris-4,Aux Cèdres du Nord,https://www.yelp.com/biz/aux-c%C3%A8dres-du-nord-paris-4,mideastern,48.87926,2.35685,153 Rue La Fayette,75010,2,4.5,10.0
568,au-p-tit-curieux-paris,Au P'tit Curieux,https://www.yelp.com/biz/au-p-tit-curieux-paris,bistros,48.87469,2.37272,27 rue de Sambre-et-Meuse,75010,0,4.0,10.0
569,les-délices-d-amour-paris,Les Délices d'Amour,https://www.yelp.com/biz/les-d%C3%A9lices-d-amour-paris,kebab,48.8827782,2.37082,6 ave Jean Jaurès,75019,2,3.5,10.0
570,l-enchotte-paris,L'Enchotte,https://www.yelp.com/biz/l-enchotte-paris,"food, french",48.87655,2.35491,11 rue Chabrol,75010,1,4.0,10.0
571,l-arlequin-café-paris-2,L'Arlequin Café,https://www.yelp.com/biz/l-arlequin-caf%C3%A9-paris-2,"modern_european, french",48.88068,2.36577,31 bis rue Louis Blanc,75010,3,3.0,10.0
572,à-la-folie-paris-3,À la Folie,https://www.yelp.com/biz/%C3%A0-la-folie-paris-3,"bars, bbq, danceclubs",48.8965699,2.38467,26 avenue Corentin Cariou,75019,2,3.5,10.0
573,au-paradis-tropical-paris-2,Au Paradis Tropical,https://www.yelp.com/biz/au-paradis-tropical-paris-2,caribbean,48.88783,2.34893,6 rue Custine,75018,0,4.5,10.0
574,labranda-paris-2,Labranda,https://www.yelp.com/biz/labranda-paris-2,turkish,48.88028,2.36681,18 rue Louis Blanc,75010,2,4.0,10.0
575,coffee-anjapper-paris,Coffee Anjapper,https://www.yelp.com/biz/coffee-anjapper-paris,indpak,48.882746997047,2.3601928981713,22 rue Cail,75010,2,4.5,10.0
576,le-bouquet-du-nord-paris,Le Bouquet du Nord,https://www.yelp.com/biz/le-bouquet-du-nord-paris,"jazzandblues, brasseries",48.8807467,2.3524991,85 rue de Maubeuge,75010,2,3.0,10.0
577,le-buffet-de-la-gare-paris,Le Buffet de la Gare,https://www.yelp.com/biz/le-buffet-de-la-gare-paris,"bars, cafes, brasseries",48.8752213,2.3578801,70 bd de Strasbourg,75010,2,4.0,10.0
578,cantine-vagabonde-paris-18,Cantine Vagabonde,https://www.yelp.com/biz/cantine-vagabonde-paris-18,"french, vegetarian",48.88521,2.36546,11 rue d'Aubervilliers,75018,2,4.0,10.0
579,mcdonalds-paris-76,McDonald's,https://www.yelp.com/biz/mcdonalds-paris-76,"hotdogs, burgers",48.8822403,2.3706601,2 avenue Secrétan,75019,2,2.5,10.0
580,barista-and-baker-paris,Barista and Baker,https://www.yelp.com/biz/barista-and-baker-paris,"salad, sandwiches, coffee",48.8745052238326,2.34810823331127,50 rue du Faubourg Poissonière,75010,2,4.0,9.0
581,navel-paris,Navel,https://www.yelp.com/biz/navel-paris,indpak,48.8875364,2.3522973,4 rue de Suez,75018,2,4.0,9.0
582,koko-bistro-japonais-paris,Koko Bistro Japonais,https://www.yelp.com/biz/koko-bistro-japonais-paris,"japanese, tapas",48.88378,2.37179,14 quai de la Loire,75019,3,3.0,9.0
583,la-bodega-paris-5,La Bodega,https://www.yelp.com/biz/la-bodega-paris-5,"bars, tapas",48.89193,2.34813,54 bis rue Ordener,75018,2,4.0,9.0
584,grand-amour-hôtel-paris,Grand Amour Hôtel,https://www.yelp.com/biz/grand-amour-h%C3%B4tel-paris,"hotels, french, breakfast_brunch",48.87454,2.3562,18 rue de la Fidélité,75010,2,4.0,9.0
585,bistro-paradis-paris,Bistro Paradis,https://www.yelp.com/biz/bistro-paradis-paris,french,48.87564,2.34879,55 rue de Paradis,75010,3,4.5,9.0
586,chez-mezig-paris-2,Chez Mezig,https://www.yelp.com/biz/chez-mezig-paris-2,"bars, french, coffee",48.8855096655198,2.37505326320046,44bis quai de la Loire,75019,3,4.0,9.0
587,pleine-mer-paris,Pleine Mer,https://www.yelp.com/biz/pleine-mer-paris,seafood,48.8768496,2.3535175,22 rue de Chabrol,75010,2,4.0,9.0
588,subway-paris-17,Subway,https://www.yelp.com/biz/subway-paris-17,"hotdogs, sandwiches",48.87955,2.354215,7 boulevard de Denain,75010,1,3.0,9.0
589,les-trois-frères-paris-2,Les Trois Frères,https://www.yelp.com/biz/les-trois-fr%C3%A8res-paris-2,"bars, moroccan, importedfood",48.8876,2.35349,14 Rue Léon,75018,1,4.0,9.0
590,au-rendez-vous-des-belges-paris,Au rendez-vous des belges,https://www.yelp.com/biz/au-rendez-vous-des-belges-paris,"coffee, cafes, brasseries",48.88083,2.35144,23 rue de Dunkerque,75010,2,3.5,9.0
591,le-champ-libre-paris,Le Champ Libre,https://www.yelp.com/biz/le-champ-libre-paris,french,48.88083,2.35144,15 Rue Dunkerque,75010,1,3.0,9.0
592,biiim-paris,BIIIM !,https://www.yelp.com/biz/biiim-paris,"burgers, salad, hotdog",48.884103,2.372015,7 quai de la Loire,75019,2,3.0,9.0
593,le-mordant-paris,Le Mordant,https://www.yelp.com/biz/le-mordant-paris,french,48.8772492991274,2.35047068695222,61 rue de Chabrol,75010,3,4.0,9.0
594,sushiya-paris,Sushiya,https://www.yelp.com/biz/sushiya-paris,japanese,48.8752878,2.3816924,12 rue pradier,75019,3,4.0,9.0
595,la-baraque-a-paris,La Baraque A.,https://www.yelp.com/biz/la-baraque-a-paris,"desserts, cafes, french",48.8757706,2.3685601,31 Rue Juliette Dodu,75010,2,4.0,9.0
596,la-marina-paris-7,La Marina,https://www.yelp.com/biz/la-marina-paris-7,pizza,48.8799848229986,2.36236127679701,8 rue du Château Landon,75010,2,4.5,9.0
597,le-moderne-paris-2,Le Moderne,https://www.yelp.com/biz/le-moderne-paris-2,french,48.876141,2.358283,87 Boulevard de Strasbourg,75010,0,3.0,9.0
598,l-école-buissonière-paris,L'école Buissonière,https://www.yelp.com/biz/l-%C3%A9cole-buissoni%C3%A8re-paris,bistros,48.8790588,2.36483,8 rue pierre Dupont,75010,2,4.0,9.0
599,le-104-paris-3,Le 104,https://www.yelp.com/biz/le-104-paris-3,"italian, pizza",48.890225,2.370082,104 rue d'Aubervilliers,75019,2,4.5,9.0
601,au-boeuf-couronné-paris-4,Au Boeuf Couronné,https://www.yelp.com/biz/au-boeuf-couronn%C3%A9-paris-4,french,48.88831,2.39135,188 avenue Jean Jaurès,75019,3,4.0,98.0
604,samsara-paris,Samsara,https://www.yelp.com/biz/samsara-paris,indpak,48.87409,2.38936,3 rue Jourdain,75020,2,3.5,38.0
607,café-des-concerts-paris-2,Café des Concerts,https://www.yelp.com/biz/caf%C3%A9-des-concerts-paris-2,"cafes, french, lounges",48.88903,2.39308,213 avenue Jean Jaurès,75019,2,2.5,32.0
608,aarchna-paris-3,Aarchna,https://www.yelp.com/biz/aarchna-paris-3,indpak,48.87251,2.39938,19 rue Télégraphe,75020,3,3.5,26.0
611,les-rigoles-paris,Les Rigoles,https://www.yelp.com/biz/les-rigoles-paris,"brasseries, bars",48.87334,2.39004,334 rue des Pyrénées,75020,2,3.5,24.0
612,le-jourdain-paris,Le Jourdain,https://www.yelp.com/biz/le-jourdain-paris,"tapas, seafood",48.8721699,2.38924,101 rue des Couronnes,75020,2,4.5,23.0
614,il-posto-paris,Il Posto,https://www.yelp.com/biz/il-posto-paris,"pizza, italian",48.874033,2.386386,356 rue des Pyrenees,75020,2,4.0,21.0
615,le-zephyr-paris-2,Le Zephyr,https://www.yelp.com/biz/le-zephyr-paris-2,"french, bistros",48.873953,2.389362,1 rue du Jourdain,75020,4,3.0,21.0
618,afrik-n-fusion-20ème-paris,Afrik'N'Fusion 20ème,https://www.yelp.com/biz/afrik-n-fusion-20%C3%A8me-paris,african,48.8732508,2.3904411,330 rue des Pyrénées,75020,2,4.0,17.0
619,chéri-chérie-paris,Chéri-Chérie,https://www.yelp.com/biz/ch%C3%A9ri-ch%C3%A9rie-paris,"french, bars",48.8730507,2.4047599,203 avenue Gambetta,75020,2,4.5,17.0
622,le-pouilly-reuilly-le-pré-st-gervais,Le Pouilly Reuilly,https://www.yelp.com/biz/le-pouilly-reuilly-le-pr%C3%A9-st-gervais,french,48.8854512,2.4038226,68 Rue André Joineau,93310,2,4.0,15.0
623,le-pré-en-bulles-le-pré-st-gervais,Le Pré en Bulles,https://www.yelp.com/biz/le-pr%C3%A9-en-bulles-le-pr%C3%A9-st-gervais,bistros,48.8858284,2.4006401,34 rue d'Estienne d'Orves,93310,2,4.0,15.0
624,les-mères-veilleuses-paris-2,Les Mères Veilleuses,https://www.yelp.com/biz/les-m%C3%A8res-veilleuses-paris-2,"bars, jazzandblues, french, food",48.88051,2.39687,67 rue Mouzaia,75019,1,4.0,14.0
626,barolo-les-lilas-2,Barolo,https://www.yelp.com/biz/barolo-les-lilas-2,italian,48.88082,2.41528,3 Rue Jean Moulin,93260,2,3.5,14.0
628,corcorans-irish-pub-lilas-paris-2,Corcoran's Irish Pub Lilas,https://www.yelp.com/biz/corcorans-irish-pub-lilas-paris-2,"pubs, irish, sportsbars",48.8776703,2.40891,Place Maquis du Vercors,75020,2,3.0,13.0
630,la-table-de-botzaris-paris,La Table de Botzaris,https://www.yelp.com/biz/la-table-de-botzaris-paris,"gastropubs, french",48.88123,2.39186,10 Rue Gén Brunet,75019,3,3.5,12.0
633,l-atelier-libanais-paris-3,L'Atelier Libanais,https://www.yelp.com/biz/l-atelier-libanais-paris-3,lebanese,48.8737799,2.38469,91 rue de Belleville,75019,4,3.5,12.0
634,au-royal-couscous-le-pré-st-gervais,Au Royal Couscous,https://www.yelp.com/biz/au-royal-couscous-le-pr%C3%A9-st-gervais,mideastern,48.8854512,2.4038226,39 rue André Joineau,93310,2,4.0,11.0
635,la-toscana-paris,La Toscana,https://www.yelp.com/biz/la-toscana-paris,italian,48.8721918,2.4046599,118 Avenue Gambetta,75020,2,4.0,11.0
636,aux-saveurs-du-liban-paris,Aux Saveurs du Liban,https://www.yelp.com/biz/aux-saveurs-du-liban-paris,mideastern,48.88705,2.39245,11 rue Eugène Jumin,75019,2,3.5,11.0
637,l-heure-bleue-paris-3,L'Heure Bleue,https://www.yelp.com/biz/l-heure-bleue-paris-3,"french, venues",48.87916,2.39112,57 rue Arthur Rozier,75019,0,4.0,10.0
639,nagasaki-paris,Nagasaki,https://www.yelp.com/biz/nagasaki-paris,japanese,48.8882559,2.3915856,194 Avenue Jean Jaurès,75019,2,4.0,10.0
640,bonjour-vietnam-paris-2,Bonjour Vietnam,https://www.yelp.com/biz/bonjour-vietnam-paris-2,vietnamese,48.87414815,2.38791122,6 rue Jean-Baptiste Dumay,75020,2,4.0,10.0
641,pho-hanoi-paris-2,Pho Hanoi,https://www.yelp.com/biz/pho-hanoi-paris-2,vietnamese,48.8748017998448,2.39552234354335,82-84 rue Pixérécourt,75020,2,4.5,9.0
642,le-relais-pantin,Le Relais,https://www.yelp.com/biz/le-relais-pantin,french,48.8937721,2.4090307,61 rue Victor-Hugo,93500,1,4.0,9.0
643,le-local-rock-paris,Le Local Rock,https://www.yelp.com/biz/le-local-rock-paris,"bars, brasseries",48.88849,2.39262,206 Avenue Jean Jaurès,75019,2,3.5,9.0
644,le-petit-vingtième-paris,Le Petit Vingtième,https://www.yelp.com/biz/le-petit-vingti%C3%A8me-paris,french,48.87370300732,2.38921254873276,381 rue des Pyrénées,75020,3,4.0,9.0
645,wok-192-paris-2,Wok 192,https://www.yelp.com/biz/wok-192-paris-2,chinese,48.8881721,2.3914034,192 ave Jean Jaurès,75019,2,3.0,9.0
646,le-triton-les-lilas,Le Triton,https://www.yelp.com/biz/le-triton-les-lilas,"jazzandblues, musicvenues, french",48.87817,2.41489,11 Bis Rue Coq Français,93260,2,4.0,8.0
647,le-docks-café-paris-2,Le Dock's Café,https://www.yelp.com/biz/le-docks-caf%C3%A9-paris-2,"bars, burgers",48.89675,2.38423,21 Avenue Corentin Cariou,75019,0,3.0,8.0
648,au-métro-des-lilas-paris-3,Au Métro des Lilas,https://www.yelp.com/biz/au-m%C3%A9tro-des-lilas-paris-3,"french, brasseries",48.8768541,2.4064371,261 ave Gambetta,75020,3,4.0,8.0
649,verona-paris,Verona,https://www.yelp.com/biz/verona-paris,italian,48.8968592,2.3846139,25 Avenue Corentin Cariou,75019,2,3.0,8.0
650,nagano-le-pré-saint-gervais-2,Nagano,https://www.yelp.com/biz/nagano-le-pr%C3%A9-saint-gervais-2,japanese,48.87905,2.41184,5/16 ave Faidherbe,93310,1,4.0,8.0
651,topknot-café-paris,TopKnot Café,https://www.yelp.com/biz/topknot-caf%C3%A9-paris,cafes,48.87488,2.38607,6 rue Melingue,75019,0,4.5,8.0
652,bistrot-du-190-paris,Bistrot du 190,https://www.yelp.com/biz/bistrot-du-190-paris,"french, bistros, brasseries",48.8876093,2.3914238,190 Avenue Jean Jaurès,75019,0,3.0,8.0
653,la-couronne-d-or-paris,La Couronne D'or,https://www.yelp.com/biz/la-couronne-d-or-paris,chinese,48.8868109,2.3862161,140 ave Jean Jaures,75019,1,3.5,7.0
654,chez-arnaud-paris,Chez Arnaud,https://www.yelp.com/biz/chez-arnaud-paris,"burgers, pizza, french",48.8874759985102,2.39266354590654,16 rue Eugene Jumin,75019,2,4.5,7.0
655,les-doigts-de-fée-paris-2,Les Doigts de Fée,https://www.yelp.com/biz/les-doigts-de-f%C3%A9e-paris-2,"bakeries, mideastern",48.87398,2.3864,356 rue des Pyrénées,75020,2,4.5,7.0
656,les-pantins-pantin,Les Pantins,https://www.yelp.com/biz/les-pantins-pantin,french,48.89529,2.40187,6 rue Victor Hugo,93500,3,4.0,7.0
657,au-cochon-de-lait-paris,Au Cochon de Lait,https://www.yelp.com/biz/au-cochon-de-lait-paris,french,48.89634,2.38414,23 Avenue Corentin Cariou,75019,0,4.0,7.0
659,hanoi-vietnamien-paris,Hanoi Vietnamien,https://www.yelp.com/biz/hanoi-vietnamien-paris,vietnamese,48.8881250091626,2.38907081530352,3 rue Adolphe Mille,75019,1,3.5,7.0
660,la-pelouse-paris,La Pelouse,https://www.yelp.com/biz/la-pelouse-paris,french,48.87943,2.3894,86 rue Botzaris,75019,2,3.0,7.0
661,chez-kim-paris,Chez Kim,https://www.yelp.com/biz/chez-kim-paris,vietnamese,48.88018,2.39094,3 rue de la Mouzaïa,75019,2,4.0,6.0
662,chez-papa-paris-11,Chez Papa,https://www.yelp.com/biz/chez-papa-paris-11,french,48.8762093,2.3927701,13 rue du Pré Saint-Gervais,75019,2,4.5,6.0
663,chez-elle-paris-2,Chez Elle,https://www.yelp.com/biz/chez-elle-paris-2,"tapasmallplates, bistros, tapas",48.8746109,2.4035699,3 rue des Tourelles,75020,2,3.0,6.0
664,buono-sano-bello-paris-2,Buono Sano Bello,https://www.yelp.com/biz/buono-sano-bello-paris-2,italian,48.87542,2.38748,14 rue de la Villette,75019,2,3.5,6.0
